number,timestamp_start,timestamp_end,acc.x,acc.y,acc.z,gyro.x,gyro.y,gyro.z,stateEstimate.x,stateEstimate.y,stateEstimate.z,stabilizer.pitch,stabilizer.roll,stabilizer.yaw
0,209497,209495,0.049138233065605,0.141921073198318,1.11099565029144,9.03672885894775,24.5069332122803,2.69800019264221,0.49404776096344,0.506741642951965,0.044883187860251,-3.90361642837524,-2.13479948043823,3.44321703910828
1,209507,209505,-0.016674438491464,0.173548310995102,1.19585311412811,19.6661014556885,14.2285575866699,2.35794520378113,0.4933061003685,0.507246911525726,0.045418534427881,-4.49816703796387,-1.97304928302765,3.60752725601196
2,209517,209515,-0.04684142768383,-0.144596368074417,1.2296895980835,27.2931003570557,2.99583768844604,1.1478533744812,0.491477638483048,0.507557570934296,0.047100830823183,-4.45979595184326,-1.7105575799942,3.58758664131165
3,209527,209525,0.057397309690714,-0.020400635898113,1.01414477825165,30.7155952453613,-7.73369836807251,-0.350985050201416,0.490328013896942,0.507724821567535,0.052112430334091,-4.77954435348511,-1.20351994037628,3.84449601173401
4,209537,209535,0.088805511593819,-0.006226046010852,1.24730718135834,31.4571762084961,-16.6251449584961,-1.22731482982636,0.489648163318634,0.508507609367371,0.053160447627306,-4.72633504867554,-1.10319936275482,3.72533273696899
5,209547,209545,-0.1362624168396,0.083450943231583,1.20431923866272,30.8807067871094,-24.649694442749,-0.760535657405853,0.494035750627518,0.50979870557785,0.046770621091127,-5.86292552947998,-0.875308811664581,4.03941059112549
6,209557,209555,0.001924816635437,0.173677325248718,1.03358733654022,26.573938369751,-33.4813232421875,-2.57108902931213,0.491631120443344,0.510524451732636,0.062357556074858,-5.22971725463867,-0.536579787731171,4.00052499771118
7,209567,209565,-0.074479959905148,-0.119895681738853,1.09950184822083,21.8747577667236,-41.9227981567383,-2.30111193656921,0.492497444152832,0.51185804605484,0.063167601823807,-4.8890552520752,-0.530225157737732,3.76884269714355
8,209577,209575,-0.023504940792918,-0.19289243221283,0.95903480052948,13.6798868179321,-49.7487983703613,-2.22968745231628,0.492136836051941,0.512275874614716,0.070074759423733,-4.24861145019531,-0.015126989223063,3.99371123313904
9,209587,209585,0.087912380695343,-0.081749819219112,1.18967366218567,7.91921710968018,-54.5548477172852,-3.37983751296997,0.493501424789429,0.513270437717438,0.071218408644199,-3.95940017700195,-0.058160923421383,3.90367364883423
10,209597,209595,-0.038387823849917,0.004139543510973,1.10679519176483,3.72504925727844,-55.599292755127,-4.84507894515991,0.493435263633728,0.514102697372437,0.080399334430695,-3.2216489315033,0.118634067475796,3.93694806098938
11,209607,209605,-0.079905726015568,0.088111944496632,1.0543041229248,-0.811333000659943,-54.0670013427734,-4.96643590927124,0.493828356266022,0.514876842498779,0.084150597453117,-2.57747769355774,0.103542305529118,3.87227344512939
12,209617,209615,-0.166915282607079,0.232370093464851,0.922403752803802,-1.0213611125946,-50.4397392272949,-5.63528823852539,0.494734078645706,0.515516877174377,0.087551966309548,-2.12653851509094,0.135023891925812,3.86220574378967
13,209627,209625,-0.18219493329525,0.072789490222931,0.860125839710236,1.11286866664886,-45.6261672973633,-7.1568865776062,0.494689643383026,0.516164422035217,0.092853307723999,-1.37464761734009,0.175012513995171,3.8150463104248
14,209637,209635,-0.282500624656677,0.013795960694552,1.0454740524292,1.19708657264709,-41.894287109375,-7.2296404838562,0.496190398931503,0.516808688640595,0.096723541617394,-1.20742964744568,0.218649536371231,3.75807952880859
15,209647,209645,-0.278077900409698,0.25697135925293,0.972079217433929,4.47001075744629,-32.7042541503906,-7.05238962173462,0.496711879968643,0.516991138458252,0.101050093770027,-0.646440327167511,0.410054475069046,3.75395679473877
16,209657,209655,-0.420859783887863,0.021504733711481,0.597412645816803,7.86202621459961,-27.528881072998,-6.08559417724609,0.498131632804871,0.517724633216858,0.104062840342522,-0.616686642169952,0.401492029428482,3.65859580039978
17,209667,209665,-0.413668841123581,-0.40363335609436,0.639396488666534,13.3366470336914,-20.2170066833496,-5.32886743545532,0.499373435974121,0.51819908618927,0.106994733214378,-0.490588128566742,0.570384502410889,3.60851645469666
18,209677,209675,-0.654424965381622,-0.395732522010803,1.01764845848084,13.8393850326538,-18.6686630249023,-4.82541227340698,0.500226497650147,0.518752455711365,0.110334306955338,-0.172890767455101,0.703105211257935,3.55877113342285
19,209687,209685,-0.188486039638519,-0.175623178482056,0.887729823589325,11.8852243423462,-18.0539836883545,-4.03391218185425,0.501340925693512,0.519036829471588,0.112587511539459,-0.022167265415192,0.91050386428833,3.5176694393158
20,209697,209695,-0.030198367312551,0.208221957087517,1.16695487499237,11.0473613739014,-19.3294525146484,-3.98014831542969,0.501447796821594,0.519517719745636,0.115986913442612,0.538891494274139,0.957816243171692,3.49668216705322
21,209707,209705,-0.094178088009358,-0.003263726830482,0.971782922744751,10.5822649002075,-16.5749568939209,-2.24471521377563,0.503055393695831,0.520402610301971,0.119321845471859,0.421377062797546,0.964239835739136,3.43546104431152
22,209717,209715,-0.162167951464653,0.136988967657089,0.692153632640839,7.44485712051392,-18.6882591247559,-3.3535418510437,0.503601312637329,0.521497964859009,0.122250735759735,0.716974377632141,0.873073220252991,3.42393779754639
23,209727,209725,-0.199120029807091,-0.21803979575634,0.730289995670319,5.38260507583618,-18.2213077545166,-3.8080952167511,0.504168570041657,0.521684885025024,0.124523401260376,0.969754815101624,1.06579399108887,3.38484382629395
24,209737,209735,-0.685097694396973,-0.602528393268585,0.473220437765122,3.35270571708679,-16.776683807373,-4.60752773284912,0.505304515361786,0.523332953453064,0.126840561628342,0.98327624797821,0.866054117679596,3.36212873458862
25,209747,209745,-0.224533289670944,-0.555346488952637,0.609482407569885,1.12400102615356,-13.2836847305298,-4.78256130218506,0.505847215652466,0.523333609104157,0.129848852753639,1.26832735538483,1.13487029075623,3.29393649101257
26,209757,209755,-0.173439264297485,-0.33655908703804,0.890629172325134,1.36754703521729,-11.3869876861572,-5.39136934280396,0.506453096866608,0.52435290813446,0.12993498146534,1.37122571468353,1.03880071640015,3.26731610298157
27,209767,209765,-0.100710347294807,-0.090492285788059,0.888229429721832,1.16595590114594,-7.03512525558472,-5.78119039535522,0.506857216358185,0.524443566799164,0.131327450275421,1.57955312728882,1.19019818305969,3.18606019020081
28,209777,209775,-0.427781373262405,-0.232187062501907,1.10004210472107,3.50465297698975,-6.80642509460449,-6.48536348342896,0.508392453193665,0.52524995803833,0.13259182870388,1.42281079292297,1.15126371383667,3.10339546203613
29,209787,209785,-0.045848250389099,-0.19339194893837,1.20807290077209,2.19415974617004,-1.60478246212006,-5.69239473342896,0.509797632694244,0.526088178157806,0.134474083781242,1.34901928901672,1.11194801330566,3.03542184829712
30,209797,209795,0.000822163186967,-0.014968492090702,1.25107944011688,2.53720784187317,0.046343713998795,-5.55960416793823,0.509826183319092,0.526224613189697,0.136369973421097,1.62151002883911,1.20210814476013,2.97692513465881
31,209807,209805,0.149289667606354,0.158823847770691,1.06606721878052,1.76318693161011,1.47014844417572,-6.25436449050903,0.510078728199005,0.526248216629028,0.137887328863144,1.74109625816345,1.30253386497498,2.90433740615845
32,209817,209815,0.261998653411865,0.159219488501549,0.778328835964203,1.05422568321228,2.22007822990417,-7.39367914199829,0.511515200138092,0.526892960071564,0.139969006180763,1.55119931697845,1.27277302742004,2.81548714637756
33,209827,209825,-0.018455253913999,0.148568421602249,0.646988928318024,-1.56884706020355,5.49852657318115,-6.04622077941895,0.511564373970032,0.526714146137237,0.140894889831543,1.66314935684204,1.39614224433899,2.739506483078
34,209837,209835,-0.158241897821426,0.162409946322441,0.460099369287491,0.362453699111938,3.44915342330933,-6.21006011962891,0.511840403079987,0.526863396167755,0.142354235053062,1.65388321876526,1.44034647941589,2.69366025924683
35,209847,209845,0.011368012987077,-0.100745350122452,0.786450505256653,-2.82272505760193,2.67244553565979,-5.81066608428955,0.512200117111206,0.527578592300415,0.143503203988075,1.64640390872955,1.32121706008911,2.67630457878113
36,209857,209855,-0.294034570455551,-0.207417443394661,1.03341054916382,-4.48392820358276,0.642086565494537,-6.65937042236328,0.513278305530548,0.527706384658814,0.143070071935654,1.45844149589539,1.33604741096497,2.57737636566162
37,209867,209865,-0.230311498045921,-0.118928827345371,0.897392272949219,-4.21803903579712,2.07127785682678,-4.81560564041138,0.513318598270416,0.527931451797485,0.143523976206779,1.56130468845367,1.27661204338074,2.53712296485901
38,209877,209875,-0.112443454563618,0.081278018653393,1.1929030418396,-6.72362756729126,-1.69621622562408,-6.27757883071899,0.51335221529007,0.528339862823486,0.143802329897881,1.63999831676483,1.13644814491272,2.51107597351074
39,209887,209885,0.131756857037544,0.172090291976929,0.973062992095947,-4.36560201644897,-0.645156741142273,-6.1117000579834,0.514007866382599,0.528700828552246,0.144720897078514,1.59181416034699,1.03809762001038,2.44011068344116
40,209897,209895,-0.091518864035606,-0.065384417772293,0.868322134017944,-1.93962383270264,0.249492734670639,-5.87713575363159,0.514215469360352,0.528770804405212,0.145137384533882,1.59684562683105,1.0503853559494,2.38043403625488
41,209907,209905,0.001233975985087,-0.227885663509369,0.654626071453095,-2.72183609008789,2.17065620422363,-5.29983520507813,0.514312922954559,0.528733670711517,0.145499795675278,1.62333333492279,1.09483778476715,2.31896662712097
42,209917,209915,-0.059482268989086,-0.081288956105709,0.954616844654083,-3.57701063156128,3.78056478500366,-4.64309644699097,0.514409780502319,0.52888959646225,0.145645707845688,1.62252879142761,1.04917764663696,2.27605700492859
43,209927,209925,0.08139318972826,0.027397016063333,0.919307351112366,-4.03798675537109,5.55640029907227,-3.77816891670227,0.514942348003387,0.529032111167908,0.147157162427902,1.51167345046997,1.01080000400543,2.22195529937744
44,209937,209935,-0.14976978302002,0.133860021829605,1.30179178714752,-4.25001859664917,7.85848808288574,-4.41687250137329,0.514862596988678,0.529162466526032,0.147064924240112,1.56727027893066,0.961904227733612,2.19079518318176
45,209947,209945,-0.084268845617771,-0.01589353941381,0.917046248912811,-4.56886720657349,11.3253965377808,-5.18623113632202,0.514405608177185,0.528815627098084,0.146919012069702,1.62794160842896,1.02406167984009,2.12913584709167
46,209957,209955,-0.050514303147793,-0.22968302667141,0.526156902313232,-5.97346544265747,15.9367380142212,-4.06891012191772,0.514912128448486,0.528408110141754,0.146730244159699,1.37300336360931,1.10172414779663,2.0414617061615
47,209967,209965,-0.460468262434006,-0.745904803276062,0.72400563955307,-8.39550685882568,16.4209289550781,-2.35689735412598,0.514724254608154,0.528399229049683,0.146647363901138,1.26085340976715,1.05136895179749,2.03069543838501
48,209977,209975,0.045615416020155,0.118667550384998,1.050421833992,-9.82394218444824,13.9598827362061,-1.10773265361786,0.514130592346191,0.528753638267517,0.146182045340538,1.23417818546295,0.792496502399445,2.06444907188416
49,209987,209985,-0.133953794836998,0.433730512857437,1.41626048088074,-11.5304689407349,13.0397815704346,-0.791709959506989,0.514089643955231,0.529291808605194,0.145364284515381,1.12659132480621,0.536872923374176,2.08564829826355
50,209997,209995,0.193510219454765,0.280994176864624,1.09162104129791,-11.3709516525269,10.5432605743408,0.136040538549423,0.514063358306885,0.529380083084106,0.144875094294548,0.989357888698578,0.410204529762268,2.08526277542114
51,210007,210005,-0.229664519429207,-0.080630242824555,1.17462742328644,-8.16848373413086,8.56563949584961,-0.72917115688324,0.513178825378418,0.529693305492401,0.144453331828117,1.02610301971436,0.243932291865349,2.11015295982361
52,210017,210015,-0.304654061794281,-0.470795512199402,1.22588109970093,-4.37768125534058,3.87191772460937,-1.15810072422028,0.512361109256744,0.529725432395935,0.143733695149422,1.07756364345551,0.216773673892021,2.1060471534729
53,210027,210025,-0.239168837666512,-0.243761003017426,0.969061195850372,-2.13024497032166,1.05619132518768,-1.68927896022797,0.511732578277588,0.529828071594238,0.143637016415596,1.09453451633453,0.173556640744209,2.09491991996765
54,210037,210035,0.197592034935951,-0.075858496129513,0.867455720901489,-1.24424469470978,1.6139817237854,-2.7790641784668,0.511168658733368,0.529791295528412,0.143761292099953,1.0785516500473,0.187492236495018,2.06855940818787
55,210047,210045,0.208027616143227,-0.377016246318817,1.04766094684601,0.066371932625771,4.12848234176636,-2.87552428245544,0.511212825775147,0.52942019701004,0.144318625330925,0.90384304523468,0.279723286628723,2.01708292961121
56,210057,210055,0.029363539069891,-0.111602999269962,1.26797330379486,0.293866783380508,5.85981750488281,-3.32335305213928,0.511325895786285,0.529558479785919,0.143682658672333,0.737309634685516,0.231406584382057,1.99055516719818
57,210067,210065,-0.067465409636498,0.012039244174957,1.07698619365692,0.18842326104641,10.8392171859741,-2.37563681602478,0.510908424854279,0.52955436706543,0.14382104575634,0.756404936313629,0.229201555252075,1.99105727672577
58,210077,210075,-0.007380899041891,-0.188480705022812,0.994002163410187,-0.978085160255432,11.9017086029053,-2.37919330596924,0.51069837808609,0.529554605484009,0.144157826900482,0.626325488090515,0.226728782057762,1.96332240104675
59,210087,210085,0.006306862924248,0.1327293664217,1.04706382751465,-1.41719567775726,11.8685569763184,-1.72438108921051,0.511196196079254,0.529811859130859,0.141394227743149,0.330709189176559,0.181589737534523,1.94728684425354
60,210097,210095,-0.077965185046196,0.19987165927887,0.772131502628326,-1.30307221412659,11.3943204879761,-1.72997665405273,0.509502291679382,0.52991259098053,0.14193132519722,0.531939744949341,0.116540163755417,1.9223860502243
61,210107,210105,-0.033493328839541,0.030538996681571,0.902628779411316,-0.254196554422379,8.90475749969482,-2.12842988967895,0.509619235992432,0.529700696468353,0.142431825399399,0.226457417011261,0.142270654439926,1.90494859218597
62,210117,210115,-0.209049239754677,0.181204661726952,1.19921362400055,0.196321964263916,7.70613956451416,-0.448558002710342,0.509159445762634,0.53002393245697,0.14038011431694,0.139026165008545,0.055145647376776,1.89200735092163
63,210127,210125,-0.011538311839104,0.626934707164764,0.91179609298706,-0.910112619400024,6.33640289306641,-0.383813470602035,0.509553253650665,0.530204653739929,0.140444427728653,-0.110204726457596,-0.015635713934898,1.8870050907135
64,210137,210135,-0.180896833539009,-0.077002294361591,0.697757959365845,2.10729360580444,5.77334117889404,0.877923846244812,0.509647905826569,0.530017375946045,0.140424758195877,-0.288624465465546,0.016291586682201,1.8857147693634
65,210147,210145,-0.230317696928978,-0.310148179531097,1.03912997245789,-0.494379013776779,-3.06259751319885,-1.18775510787964,0.508569300174713,0.529932737350464,0.140621349215508,-0.184063121676445,0.070055723190308,1.88361084461212
66,210157,210155,0.037383504211903,0.037452697753906,1.01943671703339,-1.30198049545288,-3.81196475028992,-0.945245862007141,0.508304297924042,0.530035257339478,0.136400431394577,-0.143423855304718,0.066631585359573,1.87777006626129
67,210167,210165,-0.165717273950577,-0.031113607808948,0.925860702991486,-2.61356210708618,-7.41046524047852,-0.929995477199554,0.508063733577728,0.530630588531494,0.135910660028458,-0.145587295293808,-0.081122122704983,1.86668908596039
68,210177,210175,-0.055017769336701,0.177780240774155,1.00228810310364,-4.88502931594849,-5.519362449646,-1.28417241573334,0.507594347000122,0.530690312385559,0.135368287563324,-0.046547070145607,-0.072567328810692,1.85755395889282
69,210187,210185,0.010513526387513,-0.0650674700737,0.892082691192627,-5.2807674407959,0.074109077453613,-0.627583086490631,0.507472276687622,0.530714690685272,0.132930859923363,0.021521110087633,-0.081522084772587,1.84036362171173
70,210197,210195,0.01954085379839,-0.070513531565666,0.914809048175812,-5.28732395172119,4.2967734336853,-0.344058841466904,0.507489562034607,0.530832588672638,0.132279366254807,-0.025891810655594,-0.114854611456394,1.83857131004334
71,210207,210205,-0.012164898216724,-0.005091057159007,1.16692495346069,-2.15569448471069,6.30888366699219,-1.02226483821869,0.506252765655518,0.530812323093414,0.131448060274124,0.187027513980866,-0.143443375825882,1.81724178791046
72,210217,210215,0.045702151954174,-0.093696892261505,1.13831496238709,-0.222577303647995,11.3103256225586,1.35381138324738,0.507373690605164,0.530886054039001,0.130949556827545,-0.22891902923584,-0.147149339318275,1.83370757102966
73,210227,210225,-0.020005023106933,-0.092646688222885,1.26563000679016,0.636642813682556,10.8344221115112,0.926429033279419,0.507683753967285,0.530956745147705,0.130110681056976,-0.431957244873047,-0.149051815271378,1.84670996665955
74,210237,210235,-0.000713310844731,-0.032868374139071,1.04166090488434,2.18104076385498,9.47770023345947,0.623355329036713,0.505342900753021,0.530839204788208,0.131240323185921,0.010156597942114,-0.131835162639618,1.81818175315857
75,210247,210245,-0.006520489230752,0.06719259172678,1.12685561180115,4.34801292419434,7.46290063858032,1.85405206680298,0.505027174949646,0.530895709991455,0.131313472986221,-0.156101703643799,-0.118988022208214,1.82776319980621
76,210257,210255,-0.054675161838532,0.428325206041336,1.0021048784256,3.42766976356506,5.80505275726318,1.25942432880402,0.504929661750793,0.531164348125458,0.129254147410393,-0.341018676757812,-0.159422934055328,1.84748542308807
77,210267,210265,-0.149699360132217,-0.065477035939694,0.903354167938232,7.13900709152222,7.34685373306274,3.04228091239929,0.504823505878449,0.53096604347229,0.129229187965393,-0.479709714651108,-0.059970639646053,1.87375497817993
78,210277,210275,-0.055075645446777,-0.059559296816588,1.08283734321594,4.34725618362427,3.22312688827515,2.31624627113342,0.504368185997009,0.531036138534546,0.129072353243828,-0.523041069507599,0.001326357596554,1.8911052942276
79,210287,210285,0.195857629179955,-0.074892312288284,0.983721315860748,0.796138763427734,1.97578108310699,1.81320130825043,0.503650367259979,0.531122624874115,0.128193765878677,-0.422706127166748,0.048122521489859,1.90790545940399
80,210297,210295,-0.116439715027809,-0.373908340930939,1.17386031150818,-1.65514731407166,0.169912695884705,1.92208170890808,0.50351619720459,0.531089901924133,0.12810418009758,-0.534932732582092,0.111677519977093,1.9332183599472
81,210307,210305,-0.205194056034088,-0.114668995141983,1.10375416278839,-6.64064168930054,-0.908250868320465,0.815694332122803,0.503785669803619,0.531295001506805,0.128070563077927,-0.682896912097931,0.073608241975308,1.95478320121765
82,210317,210315,0.034265927970409,0.111089400947094,1.05721664428711,-8.16323089599609,-2.58105540275574,0.594560325145721,0.503002941608429,0.53154182434082,0.125544726848602,-0.516865968704224,-0.046397190541029,1.95030689239502
83,210327,210325,-0.106247693300247,0.144656851887703,0.983332395553589,-7.30676221847534,-1.06659591197968,1.76764631271362,0.502990901470184,0.531817138195038,0.125524461269379,-0.590224921703339,-0.178451001644135,1.95426595211029
84,210337,210335,-0.016959296539426,0.079330034554005,1.05002272129059,-4.71329975128174,-3.80986285209656,0.088148809969425,0.502913057804108,0.531964421272278,0.125506028532982,-0.634400010108948,-0.26446607708931,1.97286868095398
85,210347,210345,-0.016164192929864,0.012738264165819,0.911499500274658,1.21764695644379,-0.840579152107239,2.41825747489929,0.502551734447479,0.531937062740326,0.12561172246933,-0.563112616539001,-0.268055707216263,1.98512160778046
86,210357,210355,-0.009499732404947,-0.118406541645527,1.11734306812286,4.56061410903931,0.626297235488892,2.44436717033386,0.502357304096222,0.531775414943695,0.123682759702206,-0.536988914012909,-0.184992849826813,2.01177167892456
87,210367,210365,0.08395878225565,-0.13633967936039,1.01196599006653,8.0207986831665,0.55646276473999,1.9356791973114,0.502008497714996,0.531782925128937,0.123564183712006,-0.460802644491196,-0.120445765554905,2.03055381774902
88,210377,210375,-0.066033445298672,-0.102995656430721,1.09131526947021,8.40774154663086,3.08909749984741,3.25687313079834,0.502013623714447,0.531862378120422,0.123585715889931,-0.522351682186127,-0.036799848079681,2.05152463912964
89,210387,210385,-0.149463817477226,0.102349728345871,1.08559238910675,6.65621709823608,2.4992299079895,2.29245138168335,0.50125777721405,0.531925022602081,0.124473594129086,-0.380532830953598,0.037620086222887,2.0693678855896
90,210397,210395,0.026598000898957,0.027821974828839,0.996692061424255,4.90979814529419,2.82094836235046,1.17664933204651,0.501075446605682,0.531801342964172,0.12465413659811,-0.447506874799728,0.162711948156357,2.10564661026001
91,210407,210405,0.052888609468937,0.005845663603395,1.08233737945557,-0.300535500049591,3.20201635360718,1.80626177787781,0.501069664955139,0.532029211521149,0.124978817999363,-0.565168440341949,0.156201913952827,2.12329316139221
92,210417,210415,-0.245920464396477,-0.275546103715897,1.12416851520538,-2.86896872520447,3.87757992744446,2.08888673782349,0.500863790512085,0.532333374023438,0.12514765560627,-0.591487288475037,0.094907157123089,2.13002800941467
93,210427,210425,-0.083414413034916,-0.089336574077606,1.03838968276978,-6.5984001159668,-0.27346807718277,1.52847349643707,0.500214993953705,0.532350063323975,0.125512152910233,-0.488370507955551,0.100934274494648,2.14726424217224
94,210437,210435,0.133478730916977,0.005714544095099,0.960840404033661,-8.41470527648926,-1.32591605186462,0.518570244312286,0.500152409076691,0.532545983791351,0.126017138361931,-0.538654088973999,0.03700652718544,2.16298246383667
95,210447,210445,0.098189637064934,-0.103445127606392,1.14234983921051,-6.09768056869507,-1.23818016052246,2.05882811546326,0.499775260686874,0.532693207263947,0.125955104827881,-0.4852374792099,-0.054760869592428,2.17020678520203
96,210457,210455,0.081707380712032,-0.150057643651962,1.21201705932617,-3.54642963409424,-2.44645023345947,2.02904391288757,0.499767810106278,0.532881677150726,0.126451209187508,-0.536442875862122,-0.132927656173706,2.18462204933166
97,210467,210465,0.143904477357864,0.145889341831207,1.126988530159,-0.548797488212585,-4.45402956008911,0.420571267604828,0.499931901693344,0.533306300640106,0.12697297334671,-0.636278033256531,-0.264170497655869,2.20283651351929
98,210477,210475,-0.078390866518021,0.048691004514694,1.05132782459259,3.07251930236816,-8.40205764770508,-1.26046872138977,0.499707102775574,0.533385992050171,0.127863615751266,-0.567605376243591,-0.263510555028915,2.21432304382324
99,210487,210485,-0.109133832156658,0.196212738752365,1.07308745384216,6.47705745697022,-9.64422702789307,-0.470165133476257,0.499512225389481,0.533381164073944,0.126092374324799,-0.508801519870758,-0.216333910822868,2.21701455116272
100,210497,210495,-0.033733040094376,0.288967311382294,0.879418909549713,10.8677234649658,-5.05522298812866,1.42049860954285,0.499926686286926,0.53378689289093,0.126850485801697,-0.574461042881012,-0.251484870910645,2.20913457870483
101,210507,210505,-0.188370689749718,0.135034307837486,1.09739148616791,13.3512372970581,-2.3677077293396,1.99479484558105,0.500578761100769,0.533852517604828,0.127384215593338,-0.706805944442749,-0.111344233155251,2.23756146430969
102,210517,210515,-0.090409778058529,0.092686966061592,0.847126245498657,13.5121402740479,-2.19268202781677,2.27214622497559,0.501597583293915,0.534158289432526,0.129620358347893,-0.875582039356232,0.015136562287808,2.27054715156555
103,210527,210525,0.01470316387713,-0.433485180139542,0.869703888893127,9.55622959136963,-0.318924576044083,3.3084020614624,0.499232977628708,0.534532487392426,0.13370369374752,-0.086166456341744,0.091506615281105,2.23944783210754
104,210537,210535,0.03403988853097,-0.050978172570467,1.1436927318573,6.49456453323364,-3.60570025444031,3.77979588508606,0.49886617064476,0.534871220588684,0.134499102830887,-0.03745524212718,0.197209239006042,2.26263117790222
105,210547,210545,0.176651671528816,-0.011018089950085,0.961010813713074,0.532041192054749,-4.7451229095459,2.2563693523407,0.500125586986542,0.534833610057831,0.135757520794869,-0.368229657411575,0.373858064413071,2.31816744804382
106,210557,210555,0.047680471092463,-0.223870694637299,1.1897577047348,-4.82307100296021,-6.08640289306641,2.01738619804382,0.498348742723465,0.535023391246796,0.137283593416214,0.144884020090103,0.386224031448364,2.32826280593872
107,210567,210565,-0.007542945910245,-0.04221573844552,1.03809916973114,-5.941321849823,-8.12219142913818,1.25730383396149,0.498045295476914,0.535711228847504,0.138429746031761,0.186777472496033,0.240553826093674,2.34438443183899
108,210577,210575,-0.020110491663218,0.042722396552563,1.03416073322296,-5.89808702468872,-4.10325002670288,2.51350378990173,0.497797012329102,0.535645544528961,0.139795929193497,0.237605705857277,0.276434034109116,2.3613760471344
109,210587,210585,0.00081434258027,0.202274784445763,1.00942063331604,-2.9955461025238,-1.71756267547607,1.32094144821167,0.497746556997299,0.535936832427979,0.140530288219452,0.220328986644745,0.187044501304626,2.37655711174011
110,210597,210595,0.026003990322352,0.020703032612801,1.01778876781464,0.888681888580322,1.10037136077881,0.668032586574554,0.497529476881027,0.536358892917633,0.141719803214073,0.199030816555023,0.06932308524847,2.39735817909241
111,210607,210605,0.020513691008091,0.148927271366119,0.934907674789429,2.83429718017578,2.30428051948547,0.381731897592545,0.497559934854507,0.536470413208008,0.143050834536552,0.095910437405109,0.091340236365795,2.40757727622986
112,210617,210615,-0.117661386728287,0.201345697045326,0.824832201004028,5.93112802505493,4.32246685028076,0.73278421163559,0.49837276339531,0.53682678937912,0.142820701003075,-0.173643618822098,0.065150074660778,2.41072058677673
113,210627,210625,-0.116465367376804,0.125751242041588,0.974171698093414,8.47947883605957,3.37481760978699,0.13360720872879,0.499501436948776,0.537086546421051,0.143355309963226,-0.509016215801239,0.10182847827673,2.42455410957336
114,210637,210635,-0.080138236284256,0.238774076104164,0.89531683921814,9.31802082061768,0.694027841091156,0.621350944042206,0.499424815177918,0.537333011627197,0.144652754068375,-0.482395678758621,0.160735636949539,2.42789959907532
115,210647,210645,-0.029524995014072,0.198550164699554,0.892044067382813,9.63234424591064,-2.86549782752991,0.749931812286377,0.497588068246841,0.537174880504608,0.147717952728271,-0.04350620880723,0.302037239074707,2.4321231842041
116,210657,210655,0.003856120398268,-0.002752517582849,0.928995907306671,9.88984489440918,-9.27842044830322,1.3057496547699,0.497392654418945,0.537224292755127,0.148645147681236,-0.081396840512753,0.398301184177399,2.44512629508972
117,210667,210665,0.043088845908642,0.350473582744598,0.708023309707642,6.4037618637085,-8.93939781188965,3.44411134719849,0.499511361122131,0.537254393100739,0.150338694453239,-0.537042379379272,0.537234902381897,2.44586873054504
118,210677,210675,0.064713567495346,0.160916343331337,0.953838050365448,3.30828094482422,-8.66080856323242,2.7215085029602,0.49997153878212,0.537129044532776,0.151574373245239,-0.530457317829132,0.636635005474091,2.47669529914856
119,210687,210685,-0.105504617094994,0.165385186672211,1.21853864192963,-2.02512764930725,-11.3175792694092,1.85316669940949,0.499708563089371,0.537243187427521,0.152543380856514,-0.3152756690979,0.661194562911987,2.509113073349
120,210697,210695,-0.122922874987125,0.296051144599915,0.975511968135834,-6.08902597427368,-13.1307926177979,1.23261785507202,0.49955078959465,0.537476360797882,0.153355062007904,-0.125501200556755,0.579460978507996,2.53305125236511
121,210707,210705,-0.195270463824272,0.172143682837486,0.874024748802185,-8.57998371124268,-15.7409152984619,0.08536821603775,0.495080798864365,0.535976946353912,0.154193371534348,0.945346176624298,0.796147882938385,2.60307765007019
122,210717,210715,-0.190024137496948,0.340012699365616,0.876608073711395,-10.3842897415161,-10.4938316345215,0.892651438713074,0.500563502311707,0.537993311882019,0.165142133831978,-0.243657067418098,0.28513890504837,2.5276095867157
123,210727,210725,-0.107568986713886,0.216820850968361,0.87257719039917,-9.68179607391357,-5.043128490448,0.937191784381866,0.497868001461029,0.536019742488861,0.169631585478783,0.536330103874207,0.573077201843262,2.56684374809265
124,210737,210735,-0.181271895766258,0.134000912308693,0.970471203327179,-8.64512348175049,-1.21533620357513,0.812602937221527,0.503528535366058,0.54445093870163,0.177217558026314,-0.688520610332489,-1.22629535198212,2.54482364654541
125,210747,210745,-0.20022939145565,0.374402493238449,0.825196921825409,-4.54740715026856,2.75785040855408,1.41781234741211,0.503856003284454,0.545202493667603,0.174953132867813,-0.515302002429962,-1.17410790920258,2.55314183235168
126,210757,210755,-0.364873379468918,0.174302846193314,0.818328440189362,6.67802572250366,-0.490520149469376,2.61544847488403,0.504345893859863,0.545633435249329,0.178116530179977,-0.456305712461472,-1.07103443145752,2.56766772270203
127,210767,210765,-0.203446447849274,-0.006590323988348,1.02378237247467,20.22678565979,-6.55249881744385,2.42639470100403,0.504234671592712,0.545704782009125,0.181337773799896,-0.303308367729187,-0.837755382061004,2.58407115936279
128,210777,210775,-0.125180691480637,0.270059794187546,1.05934274196625,31.1318321228027,-13.5048513412476,3.08991432189941,0.504067718982697,0.545169711112976,0.175541609525681,-0.127584904432297,-0.444442808628082,2.59953308105469
129,210787,210785,0.016005510464311,0.042626526206732,0.887685120105743,36.1199684143066,-15.5634565353394,2.87485790252686,0.50496768951416,0.545636594295502,0.176385194063187,-0.112534403800964,-0.157237783074379,2.63585996627808
130,210797,210795,-0.021384458988905,0.002592126838863,0.919171035289764,37.3283004760742,-22.7806854248047,3.71657705307007,0.504363477230072,0.544703304767609,0.177558287978172,0.245736911892891,0.485260516405106,2.65511155128479
131,210807,210805,0.099720165133476,-0.002643545856699,0.915239989757538,32.8494300842285,-25.7892932891846,3.49795627593994,0.503851771354675,0.544984877109528,0.178217127919197,0.623940408229828,0.875242352485657,2.67684102058411
132,210817,210815,0.120334401726723,-0.157244011759758,0.937445342540741,23.8701076507568,-23.4006652832031,3.58948445320129,0.502866387367249,0.545314252376556,0.174837023019791,1.08543229103088,1.20106291770935,2.69811058044434
133,210827,210825,0.073160976171494,-0.208583384752274,1.16756629943848,12.1008625030518,-16.6780376434326,3.80251574516296,0.503049910068512,0.545413970947266,0.175248831510544,1.28771495819092,1.51807200908661,2.72858214378357
134,210837,210835,0.252828866243362,-0.019438449293375,0.927019953727722,1.33643710613251,-4.16791963577271,2.80859899520874,0.503433763980866,0.545109391212463,0.175628378987312,1.44211840629578,1.77766990661621,2.74560141563416
135,210847,210845,0.044559251517058,-0.398324877023697,0.721621036529541,-11.2393341064453,3.69257664680481,1.24053204059601,0.503489911556244,0.544980049133301,0.172471240162849,1.50729048252106,1.85808908939362,2.76790738105774
136,210857,210855,-0.206174582242966,-0.36503142118454,1.29405879974365,-22.1878395080566,11.6265163421631,2.83011722564697,0.502192497253418,0.545510530471802,0.172427326440811,1.7042088508606,1.7090208530426,2.82849907875061
137,210867,210865,0.012839518487454,-0.089488409459591,1.19780158996582,-24.1671466827393,20.3005466461182,1.54754114151001,0.50157368183136,0.545479357242584,0.172265335917473,1.71483623981476,1.53760981559753,2.85589551925659
138,210877,210875,0.085618928074837,0.02340123988688,0.923166692256928,-24.5744342803955,25.2801113128662,1.80222070217133,0.500771403312683,0.545134484767914,0.171413794159889,1.6309700012207,1.37007701396942,2.87963390350342
139,210887,210885,-0.164562165737152,-0.29441499710083,1.30324125289917,-22.9540462493896,25.484302520752,1.99768912792206,0.501144111156464,0.545509874820709,0.172103494405746,1.2385950088501,1.05976569652557,2.89414858818054
140,210897,210895,0.175911098718643,0.034114520996809,1.22101426124573,-14.7873153686523,26.9734172821045,2.75503468513489,0.499867886304855,0.545010805130005,0.172303915023804,1.18130457401276,0.923510015010834,2.92654037475586
141,210907,210905,0.184355244040489,-0.101984955370426,0.710396826267242,-7.15545272827148,24.3720111846924,1.63362669944763,0.499467968940735,0.543136298656464,0.172765657305718,0.94331556558609,1.06890535354614,2.88250017166138
142,210917,210915,-0.305575668811798,-0.499928832054138,1.11460518836975,-3.85037469863892,14.4211549758911,2.34458136558533,0.498420476913452,0.542361438274383,0.172489032149315,0.772101759910584,1.06344068050385,2.90985178947449
143,210927,210925,0.049136210232973,0.151166886091232,1.02914369106293,-0.944752275943756,10.9038028717041,1.98107087612152,0.49658665060997,0.542401850223541,0.172832980751991,0.838402807712555,0.91826605796814,2.98833394050598
144,210937,210935,-0.025870218873024,0.027374215424061,0.740281522274017,-1.1013240814209,8.1733341217041,2.39009284973145,0.496222734451294,0.542382538318634,0.173777550458908,0.651507556438446,0.821850836277008,3.00880098342895
145,210947,210945,0.018876660615206,-0.125546082854271,0.826795160770416,-2.23022770881653,-5.30903005599976,2.50301861763,0.495153397321701,0.542433440685272,0.17483825981617,0.579119026660919,0.743447661399841,3.05419158935547
146,210957,210955,0.067603513598442,0.320056706666946,0.839757025241852,-8.00997829437256,3.41957759857178,1.94587564468384,0.494408190250397,0.54099440574646,0.175066590309143,0.565921425819397,0.914916038513184,3.04384565353394
147,210967,210965,-0.446947157382965,0.116976834833622,0.883803188800812,-11.7592458724976,2.90113568305969,1.19180643558502,0.494544088840485,0.541346609592438,0.175842523574829,0.356406658887863,0.682313919067383,3.06444811820984
148,210977,210975,-0.306380718946457,0.096264593303204,0.981112837791443,-15.5741958618164,4.43215465545654,0.579643249511719,0.492622047662735,0.541367113590241,0.175142303109169,0.532960534095764,0.487881720066071,3.11590695381165
149,210987,210985,-0.014189859852195,0.223995000123978,0.875899910926819,-16.2945251464844,9.85679912567139,1.34814894199371,0.491583853960037,0.541531145572662,0.175009772181511,0.495057791471481,0.219309359788895,3.13693165779114
150,210997,210995,-0.12374484539032,0.106963157653809,0.920391023159027,-14.9878931045532,10.6670818328857,0.067162118852139,0.492048501968384,0.540112733840942,0.175497859716415,0.1483274102211,0.268514007329941,3.1094057559967
151,211007,211005,-0.15673816204071,0.348032712936401,1.00766575336456,-14.604621887207,15.7728776931763,0.465656042098999,0.490775734186173,0.540193617343903,0.177183330059051,0.119400143623352,-0.006997625343502,3.12673759460449
152,211017,211015,-0.097770743072033,0.090773582458496,0.939330756664276,-9.05109119415283,15.6942567825317,-0.241119027137756,0.489762157201767,0.540542483329773,0.176991388201714,0.000741033116356,-0.300324440002441,3.14182567596436
153,211027,211025,0.010032925754786,0.036683972924948,1.01403856277466,-6.36459541320801,17.6423969268799,1.18278956413269,0.488344609737396,0.539150476455689,0.176897183060646,-0.059452686458826,-0.195437267422676,3.13954377174377
154,211037,211035,0.002315807156265,0.096627421677113,0.968868374824524,-1.7992627620697,15.8317756652832,0.356566816568375,0.487707316875458,0.539249360561371,0.176868781447411,-0.288827747106552,-0.366562068462372,3.14749240875244
155,211047,211045,-0.057634975761175,0.08404815196991,1.04219126701355,0.94943231344223,15.639820098877,1.11813819408417,0.486758172512054,0.538242161273956,0.18053437769413,-0.475358366966248,-0.294158786535263,3.1592960357666
156,211057,211055,0.042059604078531,0.242714494466782,1.03963160514832,0.767385840415955,14.2822751998901,0.722736060619354,0.486396610736847,0.537782549858093,0.180663332343102,-0.706699311733246,-0.270431071519852,3.16894459724426
157,211067,211065,0.036701578646898,-0.133920550346374,1.08237183094025,0.194217652082443,11.1319894790649,0.652973592281342,0.486006170511246,0.537623584270477,0.180809065699577,-0.919204771518707,-0.318908423185348,3.17708539962769
158,211077,211075,0.132447272539139,-0.023019354790449,1.05153357982636,-1.59648287296295,7.30951833724976,0.371055275201797,0.48492506146431,0.53751140832901,0.182722598314285,-0.987739205360413,-0.365314334630966,3.17730522155762
159,211087,211085,0.084486998617649,-0.040440171957016,1.11749196052551,-2.35456371307373,3.04239058494568,-0.100641705095768,0.4842728972435,0.537106692790985,0.183043256402016,-1.07166111469269,-0.367799609899521,3.17861938476562
160,211097,211095,0.041072152554989,0.029769508168101,1.11478662490845,-3.56232786178589,2.27831888198853,0.225532934069633,0.483027458190918,0.536709845066071,0.183411121368408,-1.02111411094666,-0.383445471525192,3.17286133766174
161,211107,211105,0.047105312347412,-0.013422363437712,0.944247722625732,-1.88820505142212,0.25060710310936,-1.05416178703308,0.482522904872894,0.53660774230957,0.186312019824982,-1.10020422935486,-0.467554718255997,3.16948008537292
162,211117,211115,0.045947398990393,-0.118302375078201,1.1232225894928,-0.854425311088562,0.950814664363861,0.686991035938263,0.48194894194603,0.536565542221069,0.186986848711968,-1.13989686965942,-0.512400925159454,3.16048240661621
163,211127,211125,0.205157995223999,-0.012620321474969,0.895745515823364,1.03999304771423,2.7961859703064,-0.674283087253571,0.481923788785934,0.536067962646484,0.187736034393311,-1.23006045818329,-0.465376257896423,3.18099236488342
164,211137,211135,0.101476907730103,-0.205186158418655,1.15289652347565,2.85798287391663,0.897702991962433,-0.333761155605316,0.480696380138397,0.535416662693024,0.188460007309914,-1.13448929786682,-0.38905057311058,3.17258977890015
165,211147,211145,0.127343267202377,0.031392369419336,1.13288640975952,4.11006259918213,3.18773627281189,1.60305953025818,0.478512108325958,0.534679114818573,0.190219566226006,-0.869379341602325,-0.299165844917297,3.1454861164093
166,211157,211155,0.201499730348587,-0.049154106527567,0.842823565006256,3.31309461593628,4.01368761062622,-0.124042347073555,0.478565245866776,0.533962726593018,0.191382601857185,-1.03873527050018,-0.196339040994644,3.18739151954651
167,211167,211165,-0.179142639040947,-0.209005996584892,1.07176160812378,1.29878854751587,-4.47511863708496,-0.573021948337555,0.478641033172607,0.53339809179306,0.192397862672806,-1.22351455688477,-0.110366426408291,3.20880818367004
168,211177,211175,0.19202946126461,0.035422865301371,1.15782749652863,-0.428536415100098,4.70849418640137,-0.076052412390709,0.478121906518936,0.533319771289825,0.193246677517891,-1.20851945877075,-0.147715672850609,3.1935498714447
169,211187,211185,0.171943932771683,-0.367574095726013,0.839646875858307,-5.34957647323608,3.1907856464386,-0.915086448192596,0.477823436260223,0.5332310795784,0.194302245974541,-1.27298510074615,-0.196297809481621,3.1881833076477
170,211197,211195,-0.101693794131279,-0.310196340084076,1.12444353103638,-8.66353034973145,-0.999757945537567,-0.290925979614258,0.477315187454224,0.533464729785919,0.195400506258011,-1.3105593919754,-0.306810289621353,3.15677452087402
171,211207,211205,0.077984608709812,-0.061693679541349,1.00982558727264,-8.87953090667725,-2.23439908027649,-0.554217219352722,0.475487798452377,0.53321236371994,0.195606961846352,-1.04601144790649,-0.397008031606674,3.12457728385925
172,211217,211215,0.019296983256936,-0.207270666956902,0.968588769435883,-8.02122402191162,-6.65743398666382,-0.785886704921722,0.475325971841812,0.531777918338776,0.196776494383812,-1.09514248371124,-0.275690227746963,3.17159676551819
173,211227,211225,0.083334192633629,0.055848944932222,0.934473097324371,-6.8487401008606,-7.28747224807739,-0.968208134174347,0.474525421857834,0.532059073448181,0.197871193289757,-0.995573878288269,-0.466397523880005,3.13460063934326
174,211237,211235,0.03117511048913,0.070549339056015,0.775903940200806,-2.34805679321289,-4.82221126556397,-0.567662179470062,0.474354267120361,0.531400740146637,0.198920086026192,-0.977982401847839,-0.484601587057114,3.1426727771759
175,211247,211245,-0.116714343428612,-0.147710829973221,0.888339877128601,0.661966860294342,-4.44340562820435,-1.52982079982758,0.473804265260696,0.531480550765991,0.197363421320915,-0.931307971477508,-0.57985907793045,3.12552213668823
176,211257,211255,-0.092471770942211,0.178786799311638,1.11245357990265,-0.232617393136024,-0.326645880937576,-1.92309391498566,0.473721385002136,0.531527936458588,0.197990387678146,-0.965873956680298,-0.630513429641724,3.1100742816925
177,211267,211265,-0.044557366520166,-0.074743896722794,0.895445108413696,3.71219849586487,4.67314767837524,-0.683079779148102,0.473770499229431,0.531461119651794,0.198599874973297,-1.0337450504303,-0.655758738517761,3.09587144851685
178,211277,211275,-0.150250777602196,-0.237775444984436,0.979479372501373,7.7865629196167,2.48233318328857,-3.00012755393982,0.473506093025207,0.531169235706329,0.199114412069321,-1.08241581916809,-0.60905259847641,3.08938074111938
179,211287,211285,-0.043772291392088,-0.104106068611145,1.1353086233139,6.57372665405273,0.848010540008545,-1.04237389564514,0.472116380929947,0.530325531959534,0.199668288230896,-0.940726816654205,-0.440939366817474,3.06046342849731
180,211297,211295,0.133226454257965,0.099279068410397,0.977335393428802,7.45596837997437,0.383115947246552,-2.14576578140259,0.472128689289093,0.529963493347168,0.200260996818542,-1.01875603199005,-0.361872524023056,3.05572605133057
181,211307,211305,0.109291739761829,-0.17968176305294,0.87600576877594,6.18717193603516,0.071154952049255,-2.28187370300293,0.471214652061462,0.530035972595215,0.199871689081192,-0.942778527736664,-0.34831628203392,3.02015280723572
182,211317,211315,-0.040931671857834,-0.144917830824852,0.918499886989594,1.37424528598785,0.166084542870522,-2.25139379501343,0.470736593008041,0.530317425727844,0.200334370136261,-0.943131983280182,-0.361034959554672,2.98745679855347
183,211327,211325,0.103083550930023,0.029435072094202,0.766357719898224,-0.363651394844055,1.69718730449677,-3.1634247303009,0.470228910446167,0.52976530790329,0.200685113668442,-0.933087885379791,-0.280428200960159,2.97426462173462
184,211337,211335,0.003575511975214,-0.151745617389679,0.830488920211792,-0.178385078907013,-0.24327452480793,-2.06398606300354,0.470298379659653,0.529806077480316,0.200969949364662,-1.02161085605621,-0.313812553882599,2.94483256340027
185,211347,211345,-0.180421322584152,-0.027794571593404,1.14982235431671,-5.79828500747681,-3.46595454216003,-4.13685655593872,0.470169216394424,0.529943764209747,0.201715111732483,-1.0574699640274,-0.359395116567612,2.92072486877441
186,211357,211355,0.031030938029289,0.317153334617615,0.860943198204041,-2.21859002113342,7.98073816299439,-1.84811282157898,0.46982604265213,0.529661655426025,0.201790496706963,-1.00958657264709,-0.381542026996613,2.88571929931641
187,211367,211365,-0.119767814874649,0.079547829926014,0.663491666316986,0.79705286026001,7.17717409133911,-2.10829496383667,0.469242423772812,0.529619157314301,0.201872602105141,-1.02450823783875,-0.423707515001297,2.85659575462341
188,211377,211375,-0.246878609061241,-0.121619053184986,1.08119177818298,-1.49136209487915,0.856739938259125,-1.37429761886597,0.468402028083801,0.529599845409393,0.202451556921005,-1.01561629772186,-0.430330574512482,2.82752132415771
189,211387,211385,-0.283254712820053,0.371408998966217,1.18833303451538,0.672616064548492,3.00281500816345,-0.482610166072846,0.467954844236374,0.530078113079071,0.202242821455002,-1.01775121688843,-0.535500168800354,2.79775834083557
190,211397,211395,-0.359553337097168,-0.025013454258442,0.775419056415558,7.15723466873169,4.79680967330933,-1.01523005962372,0.46813303232193,0.529839217662811,0.202255100011826,-1.13154339790344,-0.493859797716141,2.80850386619568
191,211407,211405,-0.284397214651108,-0.33673033118248,1.03976321220398,6.01990795135498,-5.1666784286499,-0.161352708935738,0.468052208423615,0.529569625854492,0.20209065079689,-1.21619582176209,-0.385494977235794,2.80939888954163
192,211417,211415,-0.030299792066217,-0.162515312433243,1.08508062362671,4.83154916763306,-7.44891214370728,-0.684705078601837,0.467716246843338,0.529311299324035,0.201871395111084,-1.15605318546295,-0.297501772642136,2.80925679206848
193,211427,211425,0.200528681278229,-0.165460675954819,0.971014440059662,3.04882574081421,-8.95806407928467,-2.65834927558899,0.467413276433945,0.529077470302582,0.201688721776009,-1.06863296031952,-0.228739708662033,2.80633735656738
194,211437,211435,0.006271963939071,-0.274708986282349,1.07499039173126,-1.02043783664703,-13.1432428359985,-3.85754203796387,0.466831207275391,0.529470860958099,0.200691863894463,-0.935398101806641,-0.281196862459183,2.76357960700989
195,211447,211445,0.006386406719685,-0.150550276041031,1.05223882198334,-2.04987192153931,-8.84910106658936,-3.59478354454041,0.466385751962662,0.529024004936218,0.200502678751945,-0.77040708065033,-0.218728959560394,2.73269701004028
196,211457,211455,0.100124955177307,-0.261924028396606,1.12483406066895,-2.60607695579529,-8.14026260375977,-3.89969992637634,0.465942144393921,0.529057562351227,0.200356170535088,-0.651153981685638,-0.262607783079147,2.69091987609863
197,211467,211465,0.051022216677666,-0.251049965620041,1.10401058197021,-2.1288890838623,-4.71281480789185,-3.74866700172424,0.466066688299179,0.529205560684204,0.200380966067314,-0.635249614715576,-0.316988527774811,2.65303730964661
198,211477,211475,0.040681187063456,0.093708984553814,1.05134105682373,-1.72549307346344,0.06870773434639,-3.91590738296509,0.466038107872009,0.529269456863403,0.200682148337364,-0.608976304531097,-0.353399157524109,2.61614227294922
199,211487,211485,-0.114819511771202,-0.18753157556057,1.13571298122406,1.49923503398895,0.141442894935608,-4.00051498413086,0.466067254543304,0.528814196586609,0.200878500938416,-0.643455684185028,-0.301599591970444,2.58993363380432
200,211497,211495,0.11287397146225,-0.172775402665138,1.01830852031708,4.14024019241333,3.55539464950562,-3.30900168418884,0.464299976825714,0.52818888425827,0.201133593916893,-0.377528935670853,-0.211452573537827,2.54214906692505
201,211507,211505,0.136376738548279,-0.265362650156021,0.930473864078522,6.33248710632324,4.80231142044067,-2.68157815933228,0.464015305042267,0.527908325195313,0.200946733355522,-0.425220489501953,-0.155394077301025,2.51089596748352
202,211517,211515,0.096030555665493,-0.141102105379105,1.04685151576996,5.27052593231201,3.41611576080322,-3.44165992736816,0.464157730340958,0.5276859998703,0.201269805431366,-0.553711712360382,-0.078806862235069,2.48945045471191
203,211527,211525,0.115458428859711,-0.179680481553078,0.885342717170715,4.66566801071167,7.02992010116577,-3.07240009307861,0.464382112026215,0.528396189212799,0.2016541659832,-0.67106032371521,-0.162156254053116,2.45011210441589
204,211537,211535,0.05739127099514,-0.18767361342907,1.06823575496674,3.33446645736694,1.43257546424866,-2.33228826522827,0.464551538228989,0.528210163116455,0.199889495968819,-0.798586428165436,-0.086718879640102,2.42353534698486
205,211547,211545,0.019451279193163,-0.009880975820124,1.05126094818115,2.49776244163513,0.183269679546356,-3.28371119499207,0.464588761329651,0.528087794780731,0.199955210089684,-0.843809366226196,-0.034704212099314,2.40276288986206
206,211557,211555,0.093276180326939,-0.044054515659809,0.749974846839905,4.54943513870239,2.96760034561157,-1.30219006538391,0.464757472276688,0.527938067913055,0.200048834085464,-0.883601903915405,0.007871549576521,2.37584948539734
207,211567,211565,-0.017493540421128,-0.339654892683029,0.999842286109924,0.861452996730804,-8.24002552032471,-1.97520303726196,0.464607656002045,0.527878761291504,0.200068458914757,-0.894334316253662,0.051497533917427,2.36169242858887
208,211577,211575,0.076814964413643,0.004274990409613,0.98333740234375,-2.45353436470032,-9.71958351135254,-1.63266122341156,0.463850975036621,0.52787709236145,0.199622243642807,-0.702492773532867,0.043827831745148,2.34063410758972
209,211587,211585,-0.037236168980599,0.014051363803446,0.986875891685486,-3.77652788162231,-8.96263885498047,-0.405323445796967,0.463483422994614,0.527951776981354,0.199476942420006,-0.568179607391357,0.001713291043416,2.32589244842529
210,211597,211595,-0.111781045794487,0.052319996058941,0.932734727859497,-3.14180421829224,-13.5174045562744,-1.95420742034912,0.463005125522613,0.527565658092499,0.199291527271271,-0.427987337112427,0.023827239871025,2.32458066940308
211,211607,211605,-0.152101308107376,0.113897681236267,0.945805907249451,-3.53075289726257,-7.54225540161133,-0.696790993213654,0.46262139081955,0.526354789733887,0.19893778860569,-0.253057956695557,0.180112063884735,2.31522607803345
212,211617,211615,-0.166422292590141,-0.083622023463249,0.993898987770081,-4.76172399520874,-6.62899780273438,-1.8145797252655,0.462306082248688,0.526974976062775,0.19884680211544,-0.157254323363304,0.00200807955116,2.30057525634766
213,211627,211625,-0.043661952018738,0.254763424396515,0.868139982223511,-5.10776519775391,-0.105109289288521,-0.788944065570831,0.462112218141556,0.527649819850922,0.198636755347252,-0.096472889184952,-0.176319241523743,2.2806396484375
214,211637,211635,-0.352021843194962,0.10639351606369,0.898022711277008,-3.90862250328064,4.13896036148071,-1.62382125854492,0.462150037288666,0.527883172035217,0.195473223924637,-0.12887904047966,-0.265726923942566,2.26715803146362
215,211647,211645,-0.245708584785461,0.129767149686813,0.984053313732147,-3.51885604858398,6.43980598449707,-1.4497298002243,0.462446510791779,0.527169406414032,0.19503416121006,-0.237553492188454,-0.173440918326378,2.25206279754639
216,211657,211655,-0.041271734982729,0.112677425146103,0.840776085853577,-1.51762306690216,14.3468332290649,0.198136404156685,0.462904244661331,0.5268634557724,0.194434449076653,-0.386893659830093,-0.163091704249382,2.23715424537659
217,211667,211665,-0.094263754785061,0.014059985987842,0.946432590484619,-0.999058187007904,12.8469514846802,-0.895295321941376,0.461687177419663,0.526924729347229,0.192954882979393,-0.319002330303192,-0.210718527436256,2.23651576042175
218,211677,211675,0.034180123358965,0.281601399183273,0.884814143180847,1.29051661491394,9.41507148742676,-2.03989624977112,0.459894239902496,0.526866793632507,0.192077308893204,-0.17927049100399,-0.235516920685768,2.22513127326965
219,211687,211685,0.053076393902302,0.0714311003685,0.929833292961121,2.80441975593567,9.68575572967529,0.211350783705711,0.460229516029358,0.527285575866699,0.191406965255737,-0.410109102725983,-0.302121013402939,2.20958805084229
220,211697,211695,-0.070760257542133,0.22875751554966,0.99369078874588,4.70655918121338,6.16553688049316,-0.735378861427307,0.460168957710266,0.527179002761841,0.190495789051056,-0.543707311153412,-0.254951953887939,2.20665264129639
221,211707,211705,-0.19611594080925,0.114321209490299,0.941750764846802,5.95659494400024,8.40457057952881,0.920178830623627,0.46009948849678,0.527009546756744,0.187631890177727,-0.635401785373688,-0.184732615947723,2.20060920715332
222,211717,211715,-0.008065935224295,0.081731200218201,1.0656795501709,3.62906217575073,-1.11905336380005,0.775617837905884,0.459028989076614,0.527232229709625,0.186555653810501,-0.583413422107697,-0.171213030815124,2.20640301704407
223,211727,211725,-0.093398757278919,-0.106843337416649,0.997774541378021,0.77849406003952,3.01543426513672,0.500670373439789,0.459161877632141,0.527593672275543,0.185520514845848,-0.660234391689301,-0.188461348414421,2.21448945999145
224,211737,211735,0.070729538798332,-0.050448823720217,0.884066581726074,-0.04455528408289,-2.91136574745178,-0.354042381048203,0.45920991897583,0.527654886245728,0.184998348355293,-0.744740009307861,-0.166734799742699,2.22207140922546
225,211747,211745,0.062064290046692,-0.101242229342461,1.02485764026642,-2.47872185707092,-1.4203794002533,1.06003284454346,0.459165096282959,0.527808547019959,0.183909431099892,-0.748145878314972,-0.184378951787949,2.22081089019775
226,211757,211755,0.007553088478744,-0.241793647408485,1.12374973297119,-2.05315518379211,-6.27538013458252,-0.124261498451233,0.459905922412872,0.527979254722595,0.182762652635574,-0.890537440776825,-0.218833640217781,2.23383641242981
227,211767,211765,0.138448476791382,-0.220948964357376,1.12543666362762,-1.19887924194336,-4.05915546417236,0.990554571151733,0.459705799818039,0.528942346572876,0.1811203956604,-0.79918622970581,-0.391594409942627,2.22926187515259
228,211777,211775,0.199401378631592,-0.208247900009155,1.16340267658234,-1.25564825534821,-5.03729009628296,-0.822303056716919,0.459505289793014,0.529009640216827,0.180247962474823,-0.720256209373474,-0.372072100639343,2.23714661598206
229,211787,211785,0.099001429975033,-0.020144464448094,1.1164048910141,1.51883125305176,-5.58808898925781,-1.0515730381012,0.459738969802856,0.529004514217377,0.179476574063301,-0.717992424964905,-0.337392091751099,2.23381447792053
230,211797,211795,0.019495040178299,0.054553892463446,1.05956494808197,5.33300590515137,-5.7827672958374,-0.778778493404388,0.459593683481216,0.528885722160339,0.178876906633377,-0.636114060878754,-0.26456606388092,2.23107075691223
231,211807,211805,-0.054605536162853,-0.103453733026981,1.15419256687164,7.66242980957031,-1.71256530284882,-0.030861001461744,0.459490239620209,0.529065608978272,0.179728761315346,-0.568991482257843,-0.217510670423508,2.22844505310059
232,211817,211815,-0.050160706043244,-0.05652191862464,1.12535524368286,15.0662059783936,-3.49146008491516,0.407801747322082,0.459723830223084,0.529537796974182,0.179320499300957,-0.601154148578644,-0.200959026813507,2.22880792617798
233,211827,211825,-0.141497820615768,-0.249418154358864,1.0259895324707,11.4726037979126,-1.78314256668091,0.289847791194916,0.459665596485138,0.529142737388611,0.179122865200043,-0.545854806900024,0.04741757363081,2.23463797569275
234,211837,211835,-0.059132054448128,-0.037909310311079,1.12658584117889,11.0008583068848,-1.19615352153778,-0.150081992149353,0.459961920976639,0.52995377779007,0.180041790008545,-0.577195405960083,0.033090811222792,2.23258709907532
235,211847,211845,0.126008525490761,-0.014629254117608,1.02127993106842,7.76877117156982,0.302626520395279,0.453882217407227,0.461122691631317,0.530051052570343,0.17991216480732,-0.764480650424957,0.179452151060104,2.23434257507324
236,211857,211855,-0.043056104332209,0.059292182326317,1.10801148414612,4.49010753631592,-2.20474529266357,-0.458462178707123,0.460678279399872,0.530590355396271,0.180196866393089,-0.615391135215759,0.195025265216827,2.23441505432129
237,211867,211865,-0.0582325309515,-0.240092217922211,1.16704905033112,1.00388431549072,-3.06166124343872,-1.74289095401764,0.460620582103729,0.530500173568726,0.181259751319885,-0.545932054519653,0.312060087919235,2.23182916641235
238,211877,211875,-0.109409682452679,-0.155971318483353,1.10169959068298,-2.58748984336853,-4.51528644561768,-0.546902298927307,0.461210519075394,0.530929505825043,0.181536287069321,-0.601965963840485,0.281979709863663,2.21429967880249
239,211887,211885,0.0166185349226,0.043371915817261,1.02183949947357,-3.48566246032715,-9.24346542358398,-1.23124694824219,0.461356639862061,0.531051993370056,0.181977048516274,-0.533878326416016,0.279244214296341,2.20807456970215
240,211897,211895,-0.029719932004809,0.063014417886734,1.03862607479095,-6.19833993911743,-8.21591854095459,-0.821997165679931,0.461791157722473,0.531648635864258,0.182408645749092,-0.486779063940048,0.16838276386261,2.19236421585083
241,211907,211905,-0.042097367346287,0.02572008036077,1.05896997451782,-2.3910596370697,-10.3105421066284,-1.22941625118256,0.462582945823669,0.532263696193695,0.183701157569885,-0.500770628452301,0.04812016710639,2.17861771583557
242,211917,211915,0.067909643054009,0.029156673699617,1.04701900482178,0.77795535326004,-9.17695140838623,-1.07733249664307,0.462652206420898,0.532382905483246,0.18442690372467,-0.326616317033768,0.063750810921192,2.16609501838684
243,211927,211925,-0.132444620132446,0.0001976419735,0.955739736557007,4.03899669647217,-10.8272819519043,-2.31834959983826,0.46431902050972,0.532454788684845,0.185072913765907,-0.469960153102875,0.126500099897385,2.14428234100342
244,211937,211935,-0.014963475055993,0.14874579012394,0.901179671287537,7.48007106781006,-7.6365532875061,-1.36532342433929,0.46408823132515,0.533088326454163,0.188404902815819,-0.199741527438164,0.093687832355499,2.1269588470459
245,211947,211945,-0.028598820790649,0.141824275255203,1.01366806030273,8.10766124725342,-8.2512149810791,-2.41251587867737,0.463879108428955,0.532895982265472,0.189336478710175,0.009235253557563,0.259718686342239,2.11529636383057
246,211957,211955,-0.062422953546047,0.111005552113056,0.932664573192596,12.8368349075317,-8.92375469207764,-2.39652681350708,0.464019149541855,0.533023476600647,0.190094098448753,0.137415513396263,0.358744740486145,2.0936598777771
247,211967,211965,0.095515869557858,-0.207141369581223,0.771346092224121,12.2792739868164,-4.72161340713501,-0.377226173877716,0.464720636606216,0.532722473144531,0.192257910966873,0.155696555972099,0.581205070018768,2.064049243927
248,211977,211975,0.102285541594028,-0.205401688814163,0.912650108337402,5.33420705795288,5.10677623748779,0.077629111707211,0.464652687311173,0.533247351646423,0.192993506789207,0.283475071191788,0.615749537944794,2.06901812553406
249,211987,211985,0.201476916670799,0.001377201173455,0.753251850605011,4.76905822753906,-0.46361768245697,-0.627581775188446,0.464608818292618,0.533911824226379,0.19353361427784,0.324910640716553,0.575477778911591,2.07969379425049
250,211997,211995,-0.037342257797718,-0.25668939948082,0.980508148670196,-1.53135812282562,-7.39645481109619,-1.84882473945618,0.46540167927742,0.534389019012451,0.197301164269447,0.24220535159111,0.588071703910828,2.06806445121765
251,212007,212005,0.13177901506424,-0.155272841453552,1.07426953315735,-6.47865343093872,-6.76572179794312,-1.8457635641098,0.466023325920105,0.5346320271492,0.197787299752235,0.257595986127853,0.586759388446808,2.04347062110901
252,212017,212015,0.076807707548142,-0.234899640083313,1.1247866153717,-8.47406578063965,-8.16636943817139,-2.89253044128418,0.46584677696228,0.534972071647644,0.198361828923225,0.426227807998657,0.508287727832794,2.03358268737793
253,212027,212025,0.138214439153671,-0.19650636613369,1.08640921115875,-9.00844383239746,-8.15691947937012,-2.60014605522156,0.466027766466141,0.534989714622498,0.199024066329002,0.525899231433868,0.473036348819733,1.99993777275085
254,212037,212035,0.168838858604431,-0.204264760017395,0.967812836170196,-7.00783252716064,-4.08023452758789,-2.58435583114624,0.46581757068634,0.535347461700439,0.201790332794189,0.696962475776672,0.355411529541016,1.98342347145081
255,212047,212045,-0.02165393717587,-0.247135445475578,1.18004024028778,-2.82120180130005,-7.26239967346191,-3.98996639251709,0.465688616037369,0.535579144954681,0.202637001872063,0.796247065067291,0.28817018866539,1.96156787872314
256,212057,212055,0.149522304534912,-0.11969618499279,1.07096517086029,1.28933846950531,-2.78378200531006,-3.05040836334229,0.466770738363266,0.536141514778137,0.203752383589745,0.685348212718964,0.209991201758385,1.91761839389801
257,212067,212065,0.179618418216705,-0.161277785897255,0.881073713302612,6.35136604309082,1.36045360565186,-1.88722670078278,0.467236995697022,0.536168873310089,0.205602377653122,0.678185641765595,0.272132962942123,1.87798404693604
