number,timestamp_start,timestamp_end,acc.x,acc.y,acc.z,gyro.x,gyro.y,gyro.z,stateEstimate.x,stateEstimate.y,stateEstimate.z,stabilizer.pitch,stabilizer.roll,stabilizer.yaw
0,26357,26347,0.036078758537769,0.095096901059151,0.413257539272308,-12.0706911087036,12.3344087600708,0.275283485651016,0.512985169887543,0.512736201286316,0.082452744245529,-1.71995866298676,-0.068745687603951,3.87660813331604
1,26367,26357,0.095606222748756,-0.002515091793612,0.358187049627304,-15.5349102020264,6.08914089202881,-0.143707886338234,0.512569010257721,0.511945724487305,0.084199659526348,-1.89749073982239,-0.206924244761467,3.88105201721191
2,26377,26367,-0.071351408958435,-0.067466981709004,0.608732998371124,-13.1521863937378,-7.97549200057983,-0.539845526218414,0.512677848339081,0.511088073253632,0.085037030279636,-1.84609246253967,-0.565961956977844,3.80446290969849
3,26387,26377,-0.068394236266613,-0.316679239273071,1.00559735298157,-16.1216640472412,-16.9435653686523,-0.485527038574219,0.512647211551666,0.511622905731201,0.0797598361969,-1.70225656032562,-0.613835513591766,3.82543969154358
4,26397,26387,-0.13228040933609,-0.215576529502869,1.4489518404007,-18.1982917785645,-15.2091751098633,-0.691512942314148,0.512023091316223,0.510556638240814,0.080308549106121,-1.65716290473938,-0.936991333961487,3.76690578460693
5,26407,26397,0.158167451620102,0.198702096939087,1.38671147823334,-8.06856346130371,-5.60028219223022,2.28205490112305,0.511993825435638,0.510681331157684,0.081116333603859,-1.61506927013397,-0.924882292747498,3.80583882331848
6,26417,26407,0.100815042853355,0.491814613342285,1.17546546459198,9.24300289154053,0.055864375084639,2.63471627235413,0.512336075305939,0.510219633579254,0.076817095279694,-1.90060651302338,-1.07428967952728,3.84320640563965
7,26427,26417,0.132808178663254,0.165324553847313,0.488293796777725,24.0390949249268,-3.66612458229065,2.11956357955933,0.513831615447998,0.510447323322296,0.077074766159058,-1.88491714000702,-1.23764169216156,3.78165316581726
8,26437,26427,-0.301965236663818,-0.736563324928284,0.310673505067825,16.0486221313477,-12.3276662826538,3.60524296760559,0.514233946800232,0.511343717575073,0.076717577874661,-2.67019867897034,-2.17915201187134,3.6252977848053
9,26447,26437,-0.241977229714394,-1.03602588176727,0.643755614757538,8.42246341705322,-26.6967353820801,3.47419667243958,0.519061326980591,0.517483174800873,0.062741108238697,-2.14958763122559,-1.90077662467957,3.64141178131104
10,26457,26447,-0.061234686523676,-0.450735747814178,0.964107096195221,9.02302265167236,-28.8740215301514,3.25397205352783,0.518148183822632,0.516893148422241,0.07086256146431,-1.82681703567505,-1.52510809898376,3.77954292297363
11,26467,26457,0.001700173248537,0.090847454965115,0.916811943054199,10.3391141891479,-32.4267845153809,1.17230248451233,0.518482804298401,0.516059637069702,0.074928417801857,-1.20939993858337,-0.962050259113312,3.87877368927002
12,26477,26467,-0.132545411586762,0.075802214443684,0.927991926670074,11.3335151672363,-32.5072326660156,0.981130719184876,0.517850697040558,0.514282822608948,0.079016290605068,-1.27986598014832,-0.62082701921463,4.08980560302734
13,26487,26477,-0.080242946743965,0.233398109674454,1.07326340675354,8.2873477935791,-20.77170753479,0.387487709522247,0.520049095153809,0.513982772827148,0.070777378976345,-0.959640324115753,-0.429090470075607,4.11082601547241
14,26497,26487,-0.03877280279994,0.297770202159882,0.917758524417877,2.19551968574524,-24.1422233581543,-0.912300288677216,0.520828187465668,0.513683080673218,0.069895818829537,-0.745156943798065,-0.271972000598908,4.13478899002075
15,26507,26497,-0.142420291900635,0.264993935823441,1.07437825202942,-5.91758489608765,-18.3355369567871,-0.984167158603668,0.52177220582962,0.513277769088745,0.068677492439747,-0.411820322275162,-0.192487090826035,4.11916971206665
16,26517,26507,-0.123902946710587,0.045914083719254,1.14806747436523,-10.6609544754028,-12.4619913101196,-0.360202789306641,0.52210408449173,0.512840270996094,0.062888614833355,0.197179734706879,-0.172486290335655,4.0488543510437
17,26527,26517,-0.010800286196172,-0.142637357115746,1.26048099994659,-20.8698234558105,-10.8000822067261,0.66939127445221,0.520981192588806,0.511960804462433,0.062132898718119,0.435378968715668,-0.574726283550262,4.00153064727783
18,26537,26527,-0.043646980077028,-0.051784880459309,1.20092022418976,-23.1063423156738,4.24927663803101,0.741061210632324,0.520724475383758,0.512517869472504,0.062049381434918,0.393093794584274,-0.891684591770172,4.0097279548645
19,26547,26537,-0.152139812707901,-0.130280449986458,1.06001281738281,-27.6409111022949,-3.51431369781494,-0.223223194479942,0.520873188972473,0.512756586074829,0.056293893605471,0.351904571056366,-1.4891699552536,4.00891208648682
20,26557,26547,-0.444594413042069,-0.472511023283005,1.22934770584106,-27.9194049835205,11.5293636322021,0.297142177820206,0.521108865737915,0.514111638069153,0.055301260203123,0.366597443819046,-2.50455594062805,4.00339841842651
21,26567,26557,-0.251031816005707,-0.315949350595474,1.25297272205353,-25.1902637481689,-1.77935242652893,0.044174075126648,0.520562052726746,0.517481029033661,0.049058023840189,0.106625735759735,-2.43950533866882,4.04943704605103
22,26577,26567,0.096163153648377,0.00435143802315,1.26141715049744,-4.72966909408569,10.0286884307861,2.17368841171265,0.52220630645752,0.51720255613327,0.056159988045693,0.092810429632664,-2.31013226509094,4.04262161254883
23,26587,26577,0.09397017210722,0.101774893701077,1.30635070800781,14.2949562072754,-5.59334754943848,0.708486020565033,0.52247416973114,0.516844153404236,0.052979201078415,0.255351305007935,-2.24804711341858,4.00920963287354
24,26597,26587,-0.052766900509596,0.082975082099438,1.20139002799988,32.5540771484375,1.90951526165009,4.06795644760132,0.522270441055298,0.517428398132324,0.053577270358801,0.417472809553146,-1.64806592464447,3.97526216506958
25,26607,26597,-0.037087853997946,0.145568937063217,1.13628041744232,42.6750640869141,-5.92440128326416,2.86119627952576,0.522187054157257,0.516663372516632,0.055680982768536,-0.080373398959637,-1.50625646114349,4.21251916885376
26,26617,26607,-0.040749978274107,0.122577540576458,1.11490273475647,47.4106330871582,-9.14699363708496,0.520001530647278,0.524313390254974,0.518190741539001,0.053248222917318,0.089731432497501,-0.743887424468994,4.18050003051758
27,26627,26617,-0.117273606359959,0.086357399821282,1.06670212745667,42.941276550293,-14.0923767089844,0.60578864812851,0.524711608886719,0.517590820789337,0.055574599653483,0.258685559034348,-0.906332433223724,4.20988941192627
28,26637,26627,-0.082714952528477,-0.11650475114584,1.03404879570007,32.2086791992187,-2.58585643768311,-0.283656477928162,0.524893522262573,0.520596146583557,0.058388125151396,0.331473410129547,-0.618633091449737,4.21040296554565
29,26647,26637,-0.042775139212608,-0.294823944568634,1.07681322097778,15.8620338439941,-5.75441122055054,-0.792939603328705,0.524925768375397,0.521495223045349,0.051724374294281,0.448928833007813,-0.325075030326843,4.17763614654541
30,26657,26647,0.187714800238609,-0.169443979859352,1.20501673221588,3.41137218475342,7.62267732620239,-1.30116951465607,0.525045871734619,0.522239983081818,0.052980169653893,0.505019783973694,0.019498970359564,4.13516855239868
31,26667,26657,0.04348886013031,0.024290101602674,1.28496754169464,-5.834547996521,-3.61434817314148,-0.490037977695465,0.525273323059082,0.522200465202332,0.0550941452384,0.542702972888947,0.223857760429382,4.09670162200928
32,26677,26667,-0.111802734434605,0.110003024339676,1.23054265975952,-5.28871917724609,0.30963334441185,-1.19499099254608,0.525462627410889,0.522033512592316,0.056287027895451,0.448170721530914,0.164412811398506,4.10145998001099
33,26687,26677,-0.238824173808098,-0.299785494804382,1.13933992385864,-5.2614049911499,-4.75657558441162,-3.05892467498779,0.526011228561401,0.522413372993469,0.05421406775713,0.724242925643921,0.295750349760056,4.03992652893066
34,26697,26687,-0.099994830787182,-0.053320992738009,1.07569479942322,-0.453774333000183,-4.22868061065674,-2.41123199462891,0.525306820869446,0.522098183631897,0.055747296661139,1.00897991657257,0.452883929014206,3.97810769081116
35,26707,26697,-0.070533722639084,-0.087697960436344,1.07391953468323,3.85043215751648,-11.07253074646,-1.80200695991516,0.524273455142975,0.521388053894043,0.055636089295149,0.77416980266571,0.463790833950043,3.95666313171387
36,26717,26707,-0.081432491540909,-0.068504996597767,1.05909073352814,4.68150424957275,-6.73790645599365,-1.11967647075653,0.525318145751953,0.521401047706604,0.055757112801075,0.861994445323944,0.658673286437988,3.91443109512329
37,26727,26717,0.072229877114296,-0.109919488430023,1.04621279239655,3.98412084579468,-11.1418952941895,-2.20084166526794,0.525395393371582,0.520707845687866,0.056604955345392,0.66387128829956,0.47819721698761,3.91690230369568
38,26737,26727,0.122519791126251,-0.252807438373566,1.17955112457275,-4.73425722122192,-4.834059715271,-2.72531032562256,0.526676416397095,0.521713614463806,0.059616226702929,0.059473261237145,1.51835107803345,3.70524501800537
39,26747,26737,0.103163838386536,-0.223317250609398,1.17274713516235,-14.0355043411255,-2.75466465950012,-2.79652547836304,0.530054032802582,0.517029345035553,0.055308431386948,0.189699828624725,0.947774291038513,3.74366116523743
40,26757,26747,0.171515896916389,-0.038922913372517,1.15855991840363,-17.9261646270752,5.79707384109497,-1.08782625198364,0.530970454216003,0.518656492233276,0.066496126353741,0.444954931735992,0.541987776756287,3.78584980964661
41,26767,26757,-0.007975090295076,0.05332088842988,1.19852292537689,-18.4408397674561,-9.32686805725098,-4.96168375015259,0.530796408653259,0.519515931606293,0.072889417409897,0.655037403106689,0.212743625044823,3.7840940952301
42,26777,26767,-0.099501170217991,0.138489440083504,1.20537149906158,-13.5397109985352,0.05842424556613,-4.58151340484619,0.530484557151794,0.519844472408295,0.069795429706574,-0.11373034119606,0.645138025283814,3.5793468952179
43,26787,26777,0.087225027382374,0.259745568037033,0.96926748752594,-6.1013650894165,-5.61734485626221,-2.29977965354919,0.533663690090179,0.517968058586121,0.0716852247715,0.127647161483765,0.365007370710373,3.58163237571716
44,26797,26787,-0.099481903016567,0.026073213666678,0.82443755865097,-5.22708749771118,-13.7547750473022,-3.00634813308716,0.534415900707245,0.518188655376434,0.078432321548462,0.419495403766632,0.115835718810558,3.62813305854797
45,26807,26797,-0.085368357598782,0.23567359149456,1.13029599189758,2.78863716125488,-9.29925155639648,-2.80734586715698,0.534554958343506,0.518683552742004,0.084450259804726,0.91168612241745,-0.11177010089159,3.6475465297699
46,26817,26807,-0.062190819531679,0.386572390794754,0.950017154216766,6.22257995605469,-17.8803730010986,-2.6184868812561,0.533611834049225,0.519062936306,0.078353978693485,0.218657925724983,-0.946113884449005,3.6429750919342
47,26827,26817,-0.255217015743256,0.044206492602825,0.862791657447815,-1.83638536930084,-27.9386711120605,-1.64424788951874,0.53693562746048,0.5223268866539,0.081025503575802,0.62405127286911,-0.899160087108612,3.62139010429382
48,26837,26827,-0.25365623831749,0.032838899642229,1.07040929794312,1.91446590423584,-28.8002815246582,-1.82776999473572,0.537353098392487,0.523219108581543,0.085646077990532,1.28304481506348,-0.929494023323059,3.59898400306702
49,26847,26837,-0.004407107364386,0.042014747858048,0.928173661231995,8.36104106903076,-26.3618354797363,-3.48258137702942,0.536607921123505,0.524238884449005,0.082929715514183,1.98351693153381,-0.60652893781662,3.51756453514099
50,26857,26847,-0.11239679902792,-0.149508357048035,0.864208281040192,10.353045463562,-25.5101661682129,-3.34060597419739,0.535844326019287,0.524001359939575,0.086743481457234,2.55523061752319,-0.52127468585968,3.47040200233459
51,26867,26857,-0.403093099594116,-0.159737408161163,1.1525022983551,18.4423217773438,-12.7844753265381,-1.44464886188507,0.534952878952026,0.524533092975616,0.086878672242165,2.65349268913269,-0.335072010755539,3.43783783912659
52,26877,26867,-0.409907519817352,0.116124883294106,1.35136187076569,31.758358001709,1.93766379356384,-2.59400868415833,0.535398066043854,0.524950623512268,0.086707144975662,2.80354809761047,0.076457239687443,3.34583163261414
53,26887,26877,-0.07408794015646,0.1271653175354,0.960383176803589,37.0357666015625,27.6646919250488,-0.971027970314026,0.535541653633118,0.524703621864319,0.08914464712143,2.77049422264099,0.46951362490654,3.29313826560974
54,26897,26887,-0.534110426902771,-0.198893114924431,0.746596872806549,19.1636371612549,24.8453998565674,-2.51386022567749,0.535717010498047,0.524705052375793,0.091380119323731,2.4929256439209,0.556465208530426,3.37453556060791
55,26907,26897,-0.687938868999481,-0.583032190799713,0.956857860088348,3.88968110084534,27.2117004394531,-3.56130242347717,0.536110520362854,0.526008248329163,0.094839476048946,2.36936855316162,0.936190068721771,3.3160388469696
56,26917,26907,-0.295050621032715,-0.229473039507866,1.44586622714996,-3.7708113193512,37.7318992614746,-2.56901812553406,0.535641551017761,0.525926291942596,0.093424364924431,2.21683549880981,0.986136496067047,3.32381439208984
57,26927,26917,-0.740173101425171,-0.204903662204742,1.17081701755524,-8.96249008178711,30.692850112915,-4.99993515014648,0.535018563270569,0.526552677154541,0.095165900886059,1.94029831886292,1.09914648532867,3.26403999328613
58,26937,26927,-0.170114994049072,0.02049657329917,0.763755261898041,-20.3939056396484,29.3673400878906,-5.30345726013184,0.534503042697907,0.526529371738434,0.097176320850849,1.73961985111237,0.908757388591766,3.28877949714661
59,26947,26937,0.032228410243988,0.014903301373124,0.965460121631622,-24.3479080200195,21.7459125518799,-5.51185989379883,0.533561885356903,0.527215480804443,0.096365660429001,1.58052885532379,0.732646822929382,3.26929569244385
60,26957,26947,0.018812295049429,0.106486864387989,1.02273797988892,-17.3319225311279,13.914608001709,-6.45855569839478,0.532488763332367,0.527644634246826,0.097602672874928,1.28737783432007,0.75574117898941,3.12966728210449
61,26967,26957,0.160736531019211,0.038861714303494,0.864230215549469,-11.1835441589355,1.74704658985138,-4.89634418487549,0.53209525346756,0.527016580104828,0.100388087332249,1.18686163425446,0.638816058635712,3.05106663703918
62,26977,26967,0.049961160868406,-0.359400689601898,0.989233374595642,-7.6792483329773,-5.98733234405518,-5.79922342300415,0.531331896781921,0.526695847511292,0.099658831954002,0.92076587677002,0.45628035068512,2.98296999931335
63,26987,26977,-0.099447183310986,-0.196448042988777,1.32649266719818,1.47915637493134,-0.192239999771118,-5.75143575668335,0.531397640705109,0.526937246322632,0.102276273071766,1.04720914363861,0.310677409172058,2.95466303825378
64,26997,26987,0.132147341966629,0.152616500854492,1.23080372810364,12.3737335205078,8.36894702911377,-5.4965090751648,0.530354559421539,0.527213037014008,0.104089543223381,0.776407122612,0.437295645475388,2.84722352027893
65,27007,26997,0.230163961648941,0.000191211918718,0.642399430274963,16.5927276611328,12.6711826324463,-4.72818899154663,0.530726790428162,0.52677047252655,0.107079476118088,1.16352307796478,0.258248835802078,2.86414790153503
66,27017,27007,-0.159908041357994,-0.129345580935478,0.581642508506775,13.235182762146,14.1011409759521,-5.86140394210815,0.528450608253479,0.527746617794037,0.109485745429993,1.03763556480408,0.34550130367279,2.81990742683411
67,27027,27017,-0.160488471388817,-0.27451291680336,0.83089804649353,7.18916368484497,16.1690998077393,-7.57525587081909,0.527609705924988,0.528165459632874,0.111346952617168,0.730257034301758,0.565303087234497,2.74184775352478
68,27037,27027,-0.151017770171165,0.033689018338919,1.16188561916351,4.81553506851196,23.5158843994141,-7.21390867233276,0.527398526668549,0.52810525894165,0.113906182348728,0.601662337779999,0.715655148029327,2.6742467880249
69,27047,27037,-0.049728598445654,0.338600516319275,1.10927975177765,6.1995062828064,32.4062614440918,-5.03193140029907,0.526546835899353,0.528086066246033,0.114897914230824,0.324516862630844,0.868516623973846,2.59368896484375
70,27057,27047,-0.073749363422394,0.269135057926178,0.570381581783295,3.60427379608154,29.7441062927246,-4.44680118560791,0.526048123836517,0.527883410453796,0.116556629538536,0.151197195053101,0.839648306369782,2.54940795898437
71,27067,27057,-0.38709631562233,-0.051714278757572,0.401829749345779,-6.70317554473877,14.9572448730469,-4.98947620391846,0.524887204170227,0.528268337249756,0.118197619915009,-0.137673854827881,0.906058669090271,2.50099444389343
72,27077,27067,-0.514392852783203,-0.379641652107239,1.04804909229279,-18.9051284790039,7.40652990341187,-4.8710618019104,0.524109363555908,0.528285801410675,0.120250031352043,-0.368522882461548,0.844510912895203,2.45079445838928
73,27087,27077,-0.108978360891342,0.093359269201756,1.3762800693512,-16.9245281219482,8.86593341827393,-2.30326676368713,0.523504793643951,0.528497397899628,0.121162481606007,-0.27478563785553,0.734345436096191,2.42453837394714
74,27097,27087,-0.403730750083923,0.301744908094406,1.07121598720551,-6.32315921783447,6.17091798782349,-3.04944729804993,0.521872282028198,0.528539061546326,0.121889993548393,-0.459230303764343,0.54274970293045,2.37539029121399
75,27107,27097,-0.232827633619308,0.148788347840309,0.72421270608902,-10.8226795196533,0.35732713341713,-3.7588152885437,0.521344661712647,0.528757035732269,0.124193862080574,-0.493687480688095,0.429225951433182,2.34848976135254
76,27117,27107,-0.025618884712458,-0.065810360014439,0.808690547943115,-15.3189249038696,-2.4941418170929,-4.51353454589844,0.5203977227211,0.528937995433807,0.125301942229271,-0.662072002887726,0.303785145282745,2.29207730293274
77,27127,27117,-0.035125717520714,-0.142343908548355,1.1137375831604,-1.23010623455048,-3.88985872268677,-3.36951065063477,0.520309329032898,0.529226183891296,0.126495346426964,-0.638489544391632,0.170046627521515,2.24764895439148
78,27137,27127,-0.175121679902077,0.16750131547451,1.15953743457794,3.02762842178345,6.61214923858643,-2.20077157020569,0.519649565219879,0.529424786567688,0.127325668931007,-0.473900109529495,0.14709036052227,2.2255756855011
79,27147,27137,0.014103039167821,-0.060563195496798,0.927544891834259,6.05763959884644,6.14501047134399,-3.37855267524719,0.51827085018158,0.52938038110733,0.128865450620651,-0.585023522377014,0.218022048473358,2.20165228843689
80,27157,27147,0.144998997449875,-0.131160497665405,0.717985093593597,3.85786867141724,5.06359052658081,-3.26097369194031,0.518007397651672,0.529212713241577,0.130158007144928,-0.572096586227417,0.319323867559433,2.17846751213074
81,27167,27157,-0.148490265011787,-0.076108872890472,1.11489522457123,0.073138393461704,7.22203254699707,-2.49779653549194,0.517115473747253,0.529022872447968,0.131081312894821,-0.79008024930954,0.333843261003494,2.13299798965454
82,27177,27167,-0.33549901843071,0.020856918767095,1.34101796150208,4.59804153442383,13.6578245162964,-1.9899297952652,0.517326414585114,0.529210805892944,0.131478473544121,-1.01003801822662,0.341003715991974,2.09653663635254
83,27187,27177,0.180784717202187,0.107061825692654,0.942021250724792,1.71585988998413,12.5997676849365,-3.23426580429077,0.517627358436585,0.529390633106232,0.132337808609009,-1.02171802520752,0.424072533845902,2.0836877822876
84,27197,27187,0.083639025688171,0.061046071350575,0.768368184566498,-7.0001220703125,3.50648403167725,-4.75725412368774,0.516880631446838,0.529238820075989,0.133689314126968,-1.1468106508255,0.512599408626556,2.02676749229431
85,27207,27197,-0.12999814748764,-0.149071052670479,1.06156003475189,-10.0192308425903,6.51551008224487,-2.81913185119629,0.515971601009369,0.528842866420746,0.135441824793816,-0.998206675052643,0.399249255657196,1.98138308525085
86,27217,27207,-0.157212376594543,0.178276672959328,1.09571254253387,-7.7158637046814,5.0331916809082,-2.11301565170288,0.514507949352264,0.529003202915192,0.136514276266098,-1.08042204380035,0.262496918439865,1.93746912479401
87,27227,27217,-0.177270486950874,0.078557476401329,0.844159960746765,-9.27271556854248,-5.25980567932129,-2.72124266624451,0.514276206493378,0.529271066188812,0.137596130371094,-1.02926170825958,0.216072425246239,1.918417096138
88,27237,27227,-0.096320100128651,-0.002095828764141,0.979656755924225,-11.7329549789429,-4.61271619796753,-3.63237690925598,0.514054119586945,0.529122531414032,0.137567639350891,-0.984665215015411,0.083537839353085,1.87676596641541
89,27247,27237,-0.028725020587444,0.110420495271683,1.15222728252411,-5.27382802963257,1.86839413642883,-1.68610990047455,0.51313042640686,0.529359817504883,0.138085961341858,-1.07834017276764,0.060263894498348,1.86931872367859
90,27257,27247,0.138054892420769,0.378629863262177,0.918607652187347,-0.07673367112875,3.85109400749207,-1.07171487808228,0.513602256774902,0.52948522567749,0.138157844543457,-1.09108376502991,0.063392676413059,1.8610463142395
91,27267,27257,-0.20887565612793,0.227182298898697,0.58087021112442,4.45650863647461,0.013696318492293,-1.82345366477966,0.513342499732971,0.529181182384491,0.139109998941422,-1.21110904216766,0.140334099531174,1.87368154525757
92,27277,27267,-0.247197911143303,-0.171675831079483,0.909416437149048,3.06141138076782,-0.188761487603188,-2.18312072753906,0.513454377651215,0.528704702854157,0.137501075863838,-1.20125865936279,0.185339987277985,1.85954904556274
93,27287,27277,-0.051687955856323,0.120181195437908,1.21992909908295,2.77721381187439,3.76130557060242,-0.434361279010773,0.513040900230408,0.528551578521729,0.137779474258423,-1.24652457237244,0.215426549315453,1.83767151832581
94,27297,27287,0.10633459687233,0.442989856004715,1.05213463306427,5.44904470443726,2.85539865493774,0.017737528309226,0.513083815574646,0.528428435325623,0.137979999184608,-1.30905401706696,0.235970005393028,1.8291779756546
95,27307,27297,-0.059022545814514,0.332154095172882,0.62404465675354,0.012023793533444,-6.61365842819214,-1.15534710884094,0.513133764266968,0.52829521894455,0.13788478076458,-1.34452247619629,0.34044224023819,1.84198474884033
96,27317,27307,-0.347409099340439,-0.202164202928543,0.922391593456268,-9.11369132995606,-9.47717380523682,-2.13143348693848,0.513002097606659,0.527851223945618,0.138129100203514,-1.27445948123932,0.290898144245148,1.81273806095123
97,27327,27317,-0.213129445910454,0.009635858237743,1.22402787208557,-6.87414121627808,-6.07092714309692,-0.588037371635437,0.512672245502472,0.528034627437592,0.13830503821373,-1.06756711006165,0.222594171762466,1.79361116886139
98,27337,27327,-0.133980304002762,0.245621547102928,1.05960643291473,-7.56025791168213,-12.8260040283203,-1.57361924648285,0.512046873569489,0.52788370847702,0.138401567935944,-0.890276432037354,0.065289378166199,1.7634791135788
99,27347,27337,-0.053147934377194,0.062211219221354,0.722722768783569,-12.0308866500854,-18.2168960571289,-3.03888297080994,0.511356055736542,0.528083801269531,0.139410674571991,-0.746844947338104,0.063856072723866,1.76747214794159
100,27357,27347,-0.259480535984039,-0.101848743855953,1.0026787519455,-10.0634479522705,-11.6766338348389,-2.0745267868042,0.510841190814972,0.527685821056366,0.13954596221447,-0.532083630561829,-0.067276395857334,1.73462772369385
101,27367,27357,0.033077519387007,0.167274907231331,0.94162929058075,-7.30696249008179,-7.27352714538574,-2.2467143535614,0.510307550430298,0.527708292007446,0.139470890164375,-0.611078023910522,-0.101581737399101,1.7300306558609
102,27377,27367,0.054500680416823,-0.106352031230927,0.887604773044586,-7.51778125762939,-5.27022123336792,-2.21580815315247,0.51115620136261,0.527245581150055,0.140050932765007,-0.515758454799652,-0.1032350435853,1.72351384162903
103,27387,27377,-0.051455739885569,-0.36741104722023,1.09684586524963,-2.68952798843384,-0.588781654834747,-1.77976560592651,0.510977804660797,0.52674001455307,0.139960393309593,-0.448924452066422,-0.172339364886284,1.69824433326721
104,27397,27387,0.035355865955353,-0.016016049310565,1.2031044960022,-0.64699524641037,1.37825989723206,-1.95283257961273,0.510844469070435,0.526535570621491,0.139859527349472,-0.444700986146927,-0.195254847407341,1.68296253681183
105,27407,27397,0.173474073410034,-0.023326557129622,1.00417792797089,-2.02258276939392,-1.09662020206451,-0.898851871490479,0.510888516902924,0.526219666004181,0.140233650803566,-0.405122637748718,-0.259475976228714,1.65649390220642
106,27417,27407,-0.035171329975128,-0.269697338342667,1.11189138889313,-1.58708739280701,0.956452071666718,-0.465049207210541,0.510561048984528,0.526232838630676,0.140454187989235,-0.42982280254364,-0.328926563262939,1.63707304000855
107,27427,27417,0.055888585746288,0.049836121499539,1.12478113174438,-0.514377295970917,-3.34349012374878,-1.82028710842133,0.51054060459137,0.526321768760681,0.140714645385742,-0.449461489915848,-0.392894476652145,1.62597620487213
108,27437,27427,-0.014045543037355,0.038232650607824,1.09814441204071,-1.47551929950714,-7.49706172943115,-1.32614147663116,0.51053375005722,0.526386201381683,0.140072390437126,-0.419609546661377,-0.359320223331451,1.61836636066437
109,27447,27437,-0.006469629704952,0.150351852178574,0.954993367195129,0.492580145597458,-6.90503454208374,-0.910621821880341,0.510365068912506,0.526063024997711,0.140514090657234,-0.325630336999893,-0.323627293109894,1.60633659362793
110,27457,27447,-0.170972988009453,0.1379763931036,0.946543335914612,0.886087834835053,-7.32648801803589,-1.17846918106079,0.510142862796783,0.525714159011841,0.140985682606697,-0.147965595126152,-0.3486208319664,1.58786928653717
111,27467,27457,-0.107881955802441,0.01190201099962,0.979409277439117,-0.748083055019379,-7.05095672607422,-1.20060670375824,0.509554326534271,0.52567183971405,0.141377985477448,-0.0644820779562,-0.225658893585205,1.58351504802704
112,27477,27467,0.099689573049545,0.018912207335234,1.01802134513855,-0.862187445163727,-2.61102318763733,-0.461103081703186,0.509352326393127,0.524997293949127,0.141809388995171,-0.072170004248619,-0.207941636443138,1.57782137393951
113,27487,27477,0.047411911189556,-0.187718510627747,0.978750824928284,-3.97259736061096,2.5761239528656,-0.323106050491333,0.509532809257507,0.52465832233429,0.14222015440464,-0.11580552905798,-0.27247816324234,1.57553803920746
114,27497,27487,0.083070814609528,-0.209932819008827,1.00428855419159,-4.308030128479,6.04816627502441,0.318257987499237,0.509851634502411,0.524718403816223,0.142680466175079,-0.142696291208267,-0.287875413894653,1.5688214302063
115,27507,27497,-0.089794032275677,-0.011926080100238,1.08231258392334,-5.34397745132446,4.31402683258057,-0.760026454925537,0.509939968585968,0.524485290050507,0.143006637692451,-0.089923560619354,-0.393224149942398,1.55922329425812
116,27517,27507,-0.057747032493353,0.02353305183351,1.08640146255493,-4.48213911056519,2.2713840007782,-0.908940732479095,0.509478509426117,0.524603188037872,0.143474474549294,-0.196790352463722,-0.499722719192505,1.55962908267975
117,27527,27517,-0.068625085055828,0.123332746326923,1.10539507865906,-2.55794048309326,2.56582498550415,0.311423540115356,0.509576141834259,0.524761319160461,0.143928155303001,-0.253788083791733,-0.581194937229157,1.55255615711212
118,27537,27527,-0.093137122690678,0.222434163093567,0.890049517154694,1.24302852153778,-1.88852608203888,-0.820496201515198,0.509631872177124,0.524874091148376,0.142997115850449,-0.354392737150192,-0.621043622493744,1.55931317806244
119,27547,27537,-0.011086258105934,0.131059259176254,0.933966994285584,4.2875862121582,-4.18363380432129,-0.833393096923828,0.50998854637146,0.524917900562286,0.143454760313034,-0.312404155731201,-0.601895093917847,1.55107665061951
120,27557,27547,-0.162581697106361,0.10067717730999,1.05998992919922,9.02702713012695,-6.56424379348755,1.15821611881256,0.509863018989563,0.524819016456604,0.14392751455307,-0.226445510983467,-0.523526549339294,1.54168617725372
121,27567,27557,-0.034253001213074,0.123263210058212,0.881515383720398,8.14069557189941,-2.76290655136108,-0.407158404588699,0.509692549705505,0.524599075317383,0.144358575344086,0.013861929997802,-0.288736760616302,1.53853762149811
122,27577,27567,-0.111191019415855,-0.176622226834297,1.03165256977081,7.92249155044556,-3.06148147583008,-1.26036286354065,0.509005427360535,0.524163663387299,0.145125761628151,0.013351601548493,-0.254513770341873,1.53902995586395
123,27587,27577,0.044111337512732,-0.021995279937983,1.0387088060379,6.99263763427734,-0.606783807277679,0.482490003108978,0.509011924266815,0.523993849754334,0.145105943083763,-0.044783689081669,-0.140377596020699,1.53921091556549
124,27597,27587,0.133508935570717,-0.160240173339844,0.941645801067352,0.317528188228607,-0.215479537844658,0.178136900067329,0.509340882301331,0.523713529109955,0.145501121878624,-0.037097912281752,-0.056879539042711,1.53771686553955
125,27607,27597,-0.013047867454589,-0.206017315387726,1.25231897830963,-0.187619000673294,7.94792604446411,1.41841685771942,0.509311378002167,0.523589670658112,0.145217627286911,-0.051767412573099,-0.071314200758934,1.54304575920105
126,27617,27607,0.201950281858444,0.256934821605682,1.15371310710907,-2.89406514167786,4.02496099472046,0.42272162437439,0.509377717971802,0.523658990859985,0.145603701472282,-0.087508738040924,-0.112490564584732,1.55094087123871
127,27627,27617,-0.058549795299769,-0.067000590264797,0.898576915264129,-7.54449272155762,-0.60798579454422,-0.820701599121094,0.509342968463898,0.523685336112976,0.146177589893341,-0.438434332609177,-0.186439529061317,1.57629060745239
128,27637,27627,-0.229176074266434,0.192499950528145,1.0769476890564,-5.98629474639893,-0.656914591789246,-0.177333027124405,0.510692238807678,0.523938655853272,0.148776963353157,0.23618058860302,-0.033542696386576,1.53438019752502
129,27647,27637,-0.127954572439194,0.355986148118973,1.08866727352142,-3.82455611228943,-4.8239860534668,-0.662568688392639,0.507662773132324,0.522730588912964,0.151318058371544,-0.411039590835571,-0.446923762559891,1.55927133560181
130,27657,27647,-0.022771583870053,-0.046151619404554,1.01023197174072,-3.29266214370728,-6.13276052474976,-0.755498588085175,0.510931491851807,0.524064838886261,0.156575381755829,-0.313234239816666,-0.50102949142456,1.54885077476501
131,27667,27657,-0.056531619280577,-0.154061958193779,1.09383404254913,1.13766264915466,-6.29138994216919,-1.12867784500122,0.511061131954193,0.524236738681793,0.157883882522583,-0.143350049853325,-0.513801515102387,1.53483068943024
132,27677,27667,0.049647130072117,0.170285806059837,0.941711723804474,3.19322633743286,-10.6959981918335,-1.58066809177399,0.510565221309662,0.524208784103394,0.155283078551292,-0.756326019763947,-0.650972485542297,1.56125664710999
133,27687,27677,-0.043399281799793,-0.19778323173523,0.99721097946167,3.0742666721344,-14.5735321044922,-3.33782815933228,0.514098763465881,0.525244235992432,0.1556556224823,-0.505081057548523,-0.575886189937592,1.54632866382599
134,27697,27687,-0.053472820669413,-0.236112624406815,1.08595168590546,6.06085205078125,-18.2133197784424,-2.78064942359924,0.513765692710876,0.52514386177063,0.158599138259888,-0.19383430480957,-0.464340180158615,1.51128792762756
135,27707,27697,0.086018770933151,-0.070212498307228,1.0604749917984,8.9809627532959,-19.4858798980713,-1.46955275535584,0.513603270053864,0.524999022483826,0.159322857856751,0.203081578016281,-0.319952577352524,1.47048115730286
136,27717,27707,0.030499154701829,-0.236819311976433,1.06656467914581,10.1725912094116,-23.6874542236328,-2.96667432785034,0.513063311576843,0.52469003200531,0.160835668444633,0.448949843645096,-0.143503025174141,1.44742286205292
137,27727,27717,-0.07805696874857,-0.002988655585796,1.02776098251343,11.821629524231,-16.4934101104736,-0.644297659397125,0.513069748878479,0.524361371994019,0.162081032991409,0.755600690841675,-0.180044889450073,1.42320764064789
138,27737,27727,0.186525374650955,-0.084624864161015,0.934497952461243,7.1387186050415,-11.1100254058838,-1.47129881381989,0.512818396091461,0.525027394294739,0.162621438503265,0.835881114006043,-0.111145660281181,1.42086005210876
139,27747,27737,0.169861972332001,-0.212865769863129,0.936199426651001,5.71556425094605,-5.9157509803772,-1.98223161697388,0.513463854789734,0.525428056716919,0.164056807756424,1.05168747901917,0.058608550578356,1.39732003211975
140,27757,27747,0.019740179181099,-0.14961901307106,0.978706240653992,4.12536573410034,0.806756556034088,-1.91665935516357,0.5132115483284,0.525271892547607,0.165213987231255,1.00935971736908,0.134823605418205,1.37776863574982
141,27767,27757,0.093963965773583,0.032532889395952,1.136603474617,3.52633380889893,8.43370628356934,-2.17681527137756,0.513927459716797,0.525269269943237,0.166563719511032,1.13566398620605,0.102670907974243,1.36080157756805
142,27777,27767,0.1079431027174,0.150301575660706,0.925434947013855,1.59116864204407,12.7459831237793,-2.1617271900177,0.513458073139191,0.525537729263306,0.165016040205956,1.09698152542114,0.229762643575668,1.32849502563477
143,27787,27777,-0.034982901066542,-0.179497480392456,0.882891654968262,-0.080776430666447,13.1076240539551,-1.95827043056488,0.513226389884949,0.525125205516815,0.166052386164665,0.924056053161621,0.230799496173859,1.31166124343872
144,27797,27787,-0.179625824093819,-0.15747344493866,1.22180104255676,-0.201350167393684,12.8362302780151,-1.66133582592011,0.513318061828613,0.525212705135345,0.167108356952667,0.680326342582703,0.184127181768417,1.2932596206665
145,27807,27797,-0.031726226210594,0.116619728505611,1.08553194999695,1.43454086780548,11.3258142471313,-1.87810289859772,0.51380717754364,0.525371730327606,0.167820662260056,0.436990976333618,0.14814792573452,1.27385354042053
146,27817,27807,0.067139729857445,0.214526757597923,0.826792240142822,1.06301724910736,6.17762851715088,-2.61663246154785,0.514361441135407,0.525397181510925,0.168952092528343,0.385777622461319,0.079503178596497,1.27186250686646
147,27827,27817,-0.097366355359554,-0.134414449334145,0.938998222351074,0.577726662158966,2.1915910243988,-0.9981929063797,0.513943016529083,0.525775671005249,0.170199379324913,0.776583015918732,0.079051427543163,1.25468444824219
148,27837,27827,-0.116421237587929,0.073516145348549,1.19534158706665,4.10944890975952,-0.177144542336464,-1.32843172550201,0.511385500431061,0.525812387466431,0.170574739575386,0.615703225135803,0.135008856654167,1.22701036930084
149,27847,27837,0.086857572197914,0.180192351341248,0.895797789096832,6.24170017242432,-1.97895181179047,-1.71805334091187,0.511550068855286,0.525480151176453,0.171903491020203,0.459821850061417,0.245446890592575,1.19769847393036
150,27857,27847,0.213371619582176,-0.117363326251507,0.525483727455139,8.10203456878662,-0.802082061767578,-0.38779553771019,0.511758506298065,0.524897158145905,0.173149675130844,0.426197677850723,0.376217424869537,1.1807918548584
151,27867,27857,-0.150372847914696,-0.334055155515671,0.954654157161713,6.08469152450562,3.78474712371826,2.10843729972839,0.511101365089417,0.524842858314514,0.172934591770172,0.365308284759521,0.415910333395004,1.17441558837891
152,27877,27867,-0.617532849311829,-0.172107964754105,1.17331886291504,7.77330923080444,5.45283031463623,2.31764578819275,0.511444509029388,0.524629712104797,0.172955945134163,0.278111308813095,0.481361329555512,1.18153202533722
153,27887,27877,0.250091314315796,0.243499889969826,1.05766522884369,2.30626749992371,8.08048343658447,2.10516285896301,0.511592388153076,0.524521350860596,0.173452079296112,0.102215297520161,0.76328581571579,1.17443692684174
154,27897,27887,0.216680854558945,0.367307782173157,0.612562716007233,-7.89902687072754,4.81269025802612,1.75977396965027,0.51214063167572,0.523028552532196,0.173756301403046,-0.129872649908066,0.544139981269836,1.22152435779572
155,27907,27897,-0.035573787987232,-0.239547580480576,0.616970121860504,-10.6759624481201,1.67097926139832,0.721034646034241,0.51262092590332,0.524248063564301,0.173562958836555,-0.174701616168022,0.37603884935379,1.25963819026947
156,27917,27907,-0.293990880250931,-0.049481313675642,1.01358008384705,-14.4324903488159,-5.07964897155762,-0.608547568321228,0.512264430522919,0.524994134902954,0.173723310232163,-0.269322842359543,0.303891718387604,1.26553547382355
157,27927,27917,-0.439008563756943,-0.351702988147736,1.12320923805237,-14.5150880813599,-9.63424873352051,-1.55091178417206,0.51263427734375,0.524852931499481,0.173467442393303,-0.208873689174652,-0.032788820564747,1.27352023124695
158,27937,27927,0.011877129785717,-0.099392935633659,0.938832998275757,-10.5724544525146,-12.5491027832031,-0.913635313510895,0.512397408485413,0.525788009166718,0.173788741230965,-0.066960580646992,0.071062572300434,1.26614737510681
159,27947,27937,0.04720913246274,-0.079084731638432,0.973085284233093,-3.94942378997803,-11.2811841964722,-0.284718662500382,0.511984944343567,0.524532377719879,0.174023270606995,0.839632332324982,0.15545380115509,1.29227888584137
160,27957,27947,0.071432694792748,0.108268439769745,1.05048668384552,2.83665871620178,-6.84991598129272,-1.15647733211517,0.507399141788483,0.523167133331299,0.173677280545235,0.901144683361053,0.075902424752712,1.28142499923706
161,27967,27957,0.152052044868469,0.156801611185074,0.940177023410797,5.62535238265991,0.710071563720703,-0.734342157840729,0.50679612159729,0.522771179676056,0.173795059323311,0.806483566761017,0.049553260207176,1.27249240875244
162,27977,27967,-0.035817738622427,-0.208329916000366,1.03369879722595,2.92306542396545,10.2347497940063,-0.768708944320679,0.506797969341278,0.522601246833801,0.174207225441933,0.634123027324677,0.056340038776398,1.26248800754547
163,27987,27977,-0.024252306669951,0.038525216281414,1.17883241176605,1.13801312446594,19.1962146759033,-0.238162517547607,0.507052302360535,0.522526919841766,0.17459774017334,0.422787725925446,0.028238227590919,1.25786375999451
164,27997,27987,-0.26544177532196,0.24142137169838,1.02026402950287,1.92852485179901,23.7440948486328,-0.172193393111229,0.507254719734192,0.522530794143677,0.174839422106743,0.29543262720108,0.147307679057121,1.24876356124878
165,28007,27997,-0.097312889993191,0.161146327853203,0.903636932373047,-3.02273392677307,21.9321670532227,-1.01670205593109,0.506529986858368,0.521605968475342,0.175607070326805,0.035879198461771,0.103414706885815,1.25490653514862
166,28017,28007,-0.024434708058834,-0.105702877044678,0.986807703971863,-7.53399848937988,19.594612121582,-0.766207993030548,0.506112277507782,0.521616756916046,0.17581644654274,-0.103231899440289,0.027859766036272,1.25283241271973
167,28027,28017,0.070086278021336,0.171675473451614,0.821127772331238,-9.3209867477417,15.9977226257324,-1.14474010467529,0.505160391330719,0.521723508834839,0.175905734300613,-0.274379849433899,-0.016108278185129,1.24522137641907
168,28037,28027,-0.086983308196068,-0.122395426034927,1.04651153087616,-10.8826894760132,10.4262723922729,-2.20358419418335,0.504491090774536,0.521512508392334,0.175910487771034,-0.365699231624603,0.117835149168968,1.23170125484467
169,28047,28037,0.048749305307865,0.047224327921867,1.1026074886322,-9.01888942718506,8.17788124084473,0.109999060630798,0.503587305545807,0.520143568515778,0.175753176212311,-0.41953045129776,-0.013265502639115,1.20752537250519
170,28057,28047,0.019937045872212,-0.196687310934067,0.99538516998291,-9.19715118408203,3.50152134895325,0.409961372613907,0.502713978290558,0.519973039627075,0.175693154335022,-0.497109413146973,-0.136814519762993,1.20504534244537
171,28067,28057,-0.100021012127399,-0.277300447225571,1.31888067722321,-5.16729640960693,4.91026401519775,1.02780902385712,0.501854062080383,0.519831001758575,0.178403854370117,-0.375840038061142,-0.186980649828911,1.20841860771179
172,28077,28067,0.064567625522614,-0.027547217905521,1.06410789489746,-2.13590931892395,5.08725738525391,0.590650320053101,0.500319540500641,0.51923531293869,0.178533494472504,-0.630255877971649,-0.264680951833725,1.21899819374084
173,28087,28077,0.072930730879307,-0.241170570254326,0.907110452651978,-1.73356950283051,4.47784519195557,0.789745450019836,0.500662267208099,0.518918931484222,0.179439872503281,-0.836366236209869,-0.374828577041626,1.22383284568787
174,28097,28087,-0.012442426756024,-0.050066776573658,1.26710748672485,1.31348025798798,5.70935201644897,2.06787753105164,0.500689327716827,0.51902574300766,0.181025683879852,-0.998255908489227,-0.332607269287109,1.24037146568298
175,28107,28097,-0.01712173782289,0.310620725154877,1.0308780670166,1.82797265052795,2.07309556007385,0.799688756465912,0.500904381275177,0.518254935741425,0.181766033172607,-0.972785770893097,-0.379289239645004,1.25273859500885
176,28117,28107,0.101902492344379,-0.008193001151085,0.764573931694031,-0.309498429298401,-3.06623268127441,-1.23134958744049,0.499964714050293,0.518068909645081,0.182748630642891,-1.00469493865967,-0.322877675294876,1.26954805850983
177,28127,28117,-0.22564534842968,0.004005359485745,1.05977034568787,-3.17025089263916,-4.48242235183716,-1.21305322647095,0.499342709779739,0.517609417438507,0.183558866381645,-0.930974900722504,-0.449895828962326,1.24230396747589
178,28137,28127,-0.060329105705023,-0.064240574836731,1.07152915000916,-3.31356358528137,-5.65208053588867,0.0315315797925,0.498760163784027,0.518024504184723,0.183505728840828,-0.797033250331879,-0.437995105981827,1.22872281074524
179,28147,28137,-0.106320977210999,-0.118432521820068,0.911228120326996,-4.65907287597656,-7.71737813949585,-0.090731047093868,0.497774541378021,0.517672896385193,0.184168219566345,-0.782582342624664,-0.519614696502685,1.21876549720764
180,28157,28147,-0.168694123625755,0.010693826712668,1.11639142036438,-3.27580094337463,-3.84427881240845,0.577900588512421,0.497417539358139,0.517773270606995,0.184860080480576,-0.711513102054596,-0.294409483671188,1.25541186332703
181,28167,28157,0.058138851076365,0.201626867055893,0.836920320987701,-3.14823508262634,-2.32367777824402,-0.151019737124443,0.49706381559372,0.516131103038788,0.185785472393036,-0.670393049716949,-0.363384753465652,1.25372850894928
182,28177,28167,-0.066430144011974,-0.035612151026726,0.883092880249023,-3.81934404373169,-1.23318445682526,-0.741084039211273,0.496837168931961,0.516052067279816,0.186544731259346,-0.63002473115921,-0.423124730587006,1.24631333351135
183,28187,28177,-0.084489673376083,-0.111809372901917,1.1039776802063,-4.84536027908325,1.89444398880005,-0.042523130774498,0.496509194374085,0.516089916229248,0.187161713838577,-0.642464160919189,-0.526917397975922,1.22528576850891
184,28197,28187,0.013134378939867,0.020924773067236,0.991218030452728,-5.75756978988647,4.47780466079712,-1.1392285823822,0.496526032686233,0.516291260719299,0.187165215611458,-0.662123560905456,-0.622105598449707,1.2130491733551
185,28207,28197,-0.064780421555042,-0.233353823423386,0.98355096578598,-1.50722169876099,6.05318450927734,0.35239976644516,0.496260792016983,0.516377508640289,0.187713012099266,-0.769588947296143,-0.609844207763672,1.21707582473755
186,28217,28207,0.089054740965366,-0.342285066843033,1.14041793346405,-1.18543100357056,6.96843957901001,0.393665075302124,0.496367454528809,0.516017436981201,0.188291817903519,-0.675272405147553,-0.512108504772186,1.21638965606689
187,28227,28217,-0.060992036014795,-0.103493317961693,0.976122617721558,1.37867975234985,3.44641494750977,-0.36309552192688,0.495401114225388,0.51519387960434,0.188948124647141,-0.779443383216858,-0.472309410572052,1.22975170612335
188,28237,28227,0.101492919027805,-0.155078858137131,0.962206125259399,2.29571413993835,0.65622490644455,-0.073795095086098,0.495261430740356,0.514664530754089,0.186906158924103,-0.748287498950958,-0.470229893922806,1.22499942779541
189,28247,28237,0.130713507533073,-0.362138152122498,1.09347057342529,1.75352740287781,-1.02739155292511,-0.256070822477341,0.494463443756104,0.514490365982056,0.187375798821449,-0.718726992607117,-0.465045362710953,1.21415746212006
190,28257,28247,-0.009573675692081,-0.059913218021393,1.19524836540222,0.810747504234314,-0.714243233203888,-0.448124796152115,0.493882328271866,0.514390110969543,0.187826842069626,-0.746687829494476,-0.605212152004242,1.19382560253143
191,28267,28257,0.162581458687782,-0.149632379412651,0.921765029430389,-0.4459208548069,-1.47472214698792,0.188969880342484,0.493792623281479,0.51508766412735,0.189691141247749,-0.696822643280029,-0.65248966217041,1.17501032352448
192,28277,28267,0.070140607655048,-0.315714806318283,0.996658384799957,-0.849487245082855,-1.47114527225494,-1.11712718009949,0.4932681620121,0.51544314622879,0.190417185425758,-0.715895056724548,-0.57516998052597,1.18683171272278
193,28287,28277,0.057425294071436,-0.153612345457077,1.1849821805954,3.08661365509033,1.76828849315643,0.106307931244373,0.493160307407379,0.515069365501404,0.191242724657059,-0.765114367008209,-0.440635800361633,1.20268535614014
194,28297,28287,0.166701763868332,-0.018101507797837,0.916393935680389,4.61890172958374,1.55035984516144,0.107941560447216,0.493314146995544,0.514211535453796,0.192100331187248,-0.850691080093384,-0.419481873512268,1.20436954498291
195,28307,28297,0.105184510350227,-0.152469828724861,0.957893192768097,4.23590517044067,0.035775866359472,-0.027131682261825,0.493468701839447,0.514014482498169,0.193001478910446,-0.751393795013428,-0.384367763996124,1.1932784318924
196,28317,28307,0.093462161719799,-0.276634722948074,1.22827446460724,4.82294988632202,0.009797858074307,-0.042806837707758,0.492591887712479,0.513913691043854,0.193933874368668,-0.813875079154968,-0.364916831254959,1.19691288471222
197,28327,28317,0.288454383611679,0.084110178053379,1.10065686702728,5.92170524597168,1.36152315139771,-0.421806693077087,0.49272832274437,0.513862371444702,0.194918647408485,-0.914065718650818,-0.381130248308182,1.19515204429626
198,28337,28327,0.268785119056702,-0.049513723701239,0.684046030044556,5.08738899230957,-1.47245180606842,1.21397495269775,0.493068784475327,0.514037311077118,0.190814957022667,-0.900657832622528,-0.28841170668602,1.19077134132385
199,28347,28337,0.053027339279652,-0.353716284036636,0.943111181259155,3.67017841339111,-1.40526700019836,2.14505743980408,0.492630630731583,0.513806462287903,0.191649213433266,-0.860764026641846,-0.250690042972565,1.19375455379486
200,28357,28347,-0.225503891706467,0.028902791440487,1.44966399669647,2.40137481689453,-4.2136754989624,1.45545744895935,0.492314487695694,0.513829588890076,0.19230629503727,-0.818920075893402,-0.21502074599266,1.21381890773773
201,28367,28357,-0.100463196635246,-0.207449316978455,1.14155006408691,-0.246899738907814,-2.5381190776825,1.99087917804718,0.492258906364441,0.513687491416931,0.195077925920486,-0.829940915107727,-0.290154576301575,1.21875286102295
202,28377,28367,0.127669677138329,-0.300677508115768,0.628945827484131,-3.61412191390991,-5.48907804489136,1.93196368217468,0.492436796426773,0.514305591583252,0.196320727467537,-0.804933130741119,-0.216572597622871,1.24072122573853
203,28387,28377,-0.713205575942993,-0.812610685825348,0.919520676136017,-2.11833453178406,-8.33186912536621,1.6275110244751,0.492223054170608,0.51419198513031,0.197490036487579,-0.676781713962555,-0.226387783885002,1.24985373020172
204,28397,28387,-0.360808134078979,-0.306358098983765,1.1224160194397,-3.35303354263306,-9.10920143127441,1.18870854377747,0.491721928119659,0.514319598674774,0.195982903242111,-0.65823096036911,-0.122447557747364,1.28112411499023
205,28407,28397,0.101240746676922,0.177529066801071,1.06796669960022,-5.7078742980957,-8.54886341094971,-0.008475894108415,0.492215275764465,0.513560056686401,0.196811884641647,-0.564584314823151,-0.166566327214241,1.29482626914978
206,28417,28407,0.055676937103272,-0.071614108979702,0.93890368938446,-2.1725857257843,-8.26003932952881,0.103804640471935,0.492324769496918,0.513573408126831,0.197692275047302,-0.448609799146652,-0.113965153694153,1.30564975738525
207,28427,28417,-0.197433412075043,-0.757083594799042,1.00597369670868,-4.36430311203003,-4.95771455764771,0.620996654033661,0.492217481136322,0.513058066368103,0.198553904891014,-0.384898513555527,-0.157095909118652,1.29779398441315
208,28437,28427,-0.357066422700882,-0.175303995609283,1.12006258964539,-1.39449644088745,-1.0079950094223,0.066925510764122,0.492557227611542,0.513191878795624,0.19818876683712,-0.375133842229843,-0.199262470006943,1.30149412155151
209,28447,28437,-0.241181969642639,0.169449627399445,0.84603875875473,-2.98694753646851,1.19690775871277,1.10335421562195,0.493236988782883,0.513170957565308,0.198980674147606,-0.156476557254791,-0.107919178903103,1.30908715724945
210,28457,28447,0.140793457627296,-0.072635002434254,0.616223454475403,1.77060961723328,2.67186188697815,0.244432419538498,0.492289841175079,0.512471735477448,0.19988314807415,-0.153980016708374,-0.089820243418217,1.31898093223572
211,28467,28457,-0.036310713738203,-0.304618209600449,0.849235236644745,1.35836136341095,3.63108491897583,0.853684484958649,0.492184460163116,0.512252330780029,0.197187185287476,-0.150701761245728,-0.160864099860191,1.31956887245178
212,28477,28467,-0.182495608925819,-0.023122448474169,1.21731805801392,-0.229795262217522,3.35346102714539,0.877972722053528,0.492078423500061,0.512724578380585,0.197356939315796,-0.175599247217178,-0.241119220852852,1.32200622558594
213,28487,28477,-0.123186603188515,0.254335790872574,1.01588213443756,2.72487473487854,4.46903467178345,1.50778341293335,0.492147117853165,0.513174712657928,0.197480574250221,-0.175932303071022,-0.216246232390404,1.33172690868378
214,28497,28487,-0.044531542807818,-0.004443497862667,0.71833747625351,5.07161140441895,0.04403941705823,0.54816210269928,0.491891801357269,0.512967109680176,0.196130692958832,-0.099910438060761,-0.085518300533295,1.34979200363159
215,28507,28497,-0.212531417608261,-0.040071412920952,0.969300925731659,4.86068964004517,-2.7110378742218,0.43455782532692,0.490957379341126,0.512253880500793,0.196120351552963,-0.102168209850788,-0.042809538543224,1.35718655586243
216,28517,28507,-0.082864984869957,0.151492938399315,0.976005434989929,4.21353960037231,-1.58438158035278,1.18599402904511,0.490729242563248,0.512128949165344,0.195943772792816,-0.324429214000702,-0.078350827097893,1.35783588886261
217,28527,28517,-0.061393238604069,0.226247161626816,0.792051613330841,3.8247492313385,-1.79032778739929,0.780991733074188,0.492194563150406,0.512475609779358,0.195676133036613,-0.29983714222908,-0.178671538829803,1.37472748756409
218,28537,28527,-0.148667454719543,0.030434159561992,0.949225723743439,0.62053632736206,-4.46228218078613,-0.685530602931976,0.492045372724533,0.513305187225342,0.195394247770309,-0.237217769026756,-0.145643547177315,1.38449287414551
219,28547,28537,-0.146100148558617,0.236841276288033,1.10596072673798,1.23060965538025,-0.90323930978775,2.13492131233215,0.491806030273438,0.513366162776947,0.194923803210258,-0.141327887773514,-0.138860568404198,1.37944900989532
220,28557,28547,-0.067438274621964,0.281222015619278,0.732112169265747,2.10331296920776,-1.01310729980469,0.485545039176941,0.491457492113113,0.513328731060028,0.194494307041168,-0.168320402503014,-0.106431603431702,1.39730155467987
221,28567,28557,-0.235552251338959,-0.118170082569122,0.883679449558258,1.46264863014221,-1.76705741882324,-0.310458213090897,0.491439342498779,0.513206243515015,0.193283602595329,-0.135384827852249,-0.240494623780251,1.41139853000641
222,28577,28567,-0.187036126852036,0.103346310555935,1.20998787879944,4.77331638336182,3.32499361038208,2.07829737663269,0.491164267063141,0.514211475849152,0.192500531673431,-0.295760184526443,-0.1930733025074,1.40707278251648
223,28587,28577,0.121980227530003,0.320437133312225,0.820976138114929,6.89993286132813,3.25751495361328,1.97280144691467,0.492313712835312,0.514088690280914,0.191856235265732,-0.407201826572418,-0.173426240682602,1.42264044284821
224,28597,28587,-0.052386544644833,-0.02207769267261,0.996285319328308,7.59617519378662,0.571025967597961,1.81869077682495,0.492803245782852,0.514338374137878,0.187258213758469,-0.339393794536591,-0.033700317144394,1.44290018081665
225,28607,28597,-0.013925061561167,0.247196301817894,1.1933456659317,7.15440940856934,0.186324283480644,2.26291656494141,0.492463529109955,0.514001488685608,0.186331570148468,-0.217192500829697,0.07599038630724,1.45801079273224
226,28617,28607,0.000166382975294,-0.120254434645176,0.982028007507324,3.04103827476501,-1.25685107707977,3.05773758888245,0.492093771696091,0.513892769813538,0.185390397906303,-0.210378006100655,0.218554109334946,1.47946417331696
227,28627,28617,-0.02721100114286,-0.024308975785971,0.950867712497711,0.340971350669861,-7.78276491165161,1.65773415565491,0.492065638303757,0.513717591762543,0.184982061386108,-0.222177386283874,0.288030445575714,1.51137757301331
228,28637,28627,0.083280570805073,0.06356517970562,1.03949344158173,-4.16726160049439,-8.66358280181885,1.27765142917633,0.492279499769211,0.513591349124908,0.184075713157654,-0.3086316883564,0.11605029553175,1.5306304693222
229,28647,28637,-0.15615426003933,-0.017762022092939,1.12540972232819,-6.19567346572876,-8.77625751495361,1.2106294631958,0.493224918842316,0.51468026638031,0.183268666267395,-0.133049353957176,0.046186525374651,1.54407870769501
230,28657,28647,-0.182788193225861,-0.005776168312877,1.019198179245,-7.38029861450195,-10.4653234481812,0.405721306800842,0.492927551269531,0.514968693256378,0.182513803243637,0.002050042850897,0.038739390671253,1.55839407444
231,28667,28657,-0.106606230139732,0.095932237803936,0.982277989387512,-6.07473230361939,-7.4447226524353,0.86073762178421,0.492831647396088,0.514772534370422,0.180521011352539,0.041617318987846,-0.079624086618424,1.55929863452911
232,28677,28667,-0.216582059860229,0.22247351706028,1.03099167346954,-3.37953472137451,-5.14148998260498,0.407557904720306,0.493322908878326,0.515131115913391,0.179712802171707,0.196646496653557,-0.067271389067173,1.56559264659882
233,28687,28677,-0.579744517803192,-0.105530858039856,1.04332220554352,-0.06429423391819,-2.51778745651245,0.738165140151978,0.49307107925415,0.514833390712738,0.17898964881897,0.218425139784813,-0.097727753221989,1.56808018684387
234,28697,28687,-0.125257655978203,-0.057175971567631,1.09129214286804,2.70041084289551,-0.670535385608673,0.940076172351837,0.493349403142929,0.514913439750671,0.179206818342209,0.200420081615448,-0.062897592782974,1.57293164730072
235,28707,28697,0.067077286541462,-0.080188862979412,1.08691096305847,3.39942073822021,1.45476269721985,0.571605205535889,0.493727713823319,0.514818131923676,0.178577408194542,0.237541481852531,-0.017887076362968,1.58158910274506
236,28717,28707,-0.060293160378933,-0.181998521089554,1.18798458576202,4.54325294494629,2.26298975944519,0.054213374853134,0.493744432926178,0.514769315719605,0.178033694624901,0.216117784380913,-0.116893596947193,1.59441637992859
237,28727,28717,-0.112424775958061,-0.050127595663071,1.14942073822021,4.16639471054077,2.39242148399353,0.671036660671234,0.493902504444122,0.515499413013458,0.180447086691856,0.193291053175926,-0.029666151851416,1.59389078617096
238,28737,28727,-0.048998363316059,-0.025992557406426,1.13222634792328,3.0197446346283,2.3277542591095,0.102227285504341,0.494004189968109,0.515394330024719,0.180395603179932,0.104971282184124,-0.002235737163574,1.60093212127686
239,28747,28737,-0.036374427378178,0.075726538896561,1.04066169261932,2.01830816268921,0.760004997253418,-1.40259194374084,0.494463920593262,0.515591681003571,0.1804488748312,0.160949036478996,0.110107876360416,1.59913992881775
240,28757,28747,-0.006672641262412,-0.014871187508106,1.10269558429718,1.30056154727936,-0.125025197863579,-1.05093252658844,0.494315207004547,0.515364408493042,0.181742936372757,0.031134579330683,0.198046311736107,1.576531291008
241,28767,28757,0.042715560644865,-0.076492443680763,1.02679145336151,1.27295565605164,-0.802636504173279,0.129428654909134,0.495172917842865,0.515203893184662,0.182011529803276,-0.008774836547673,0.146281987428665,1.57423627376556
242,28777,28767,0.042116116732359,-0.084585100412369,1.085613489151,-1.88036298751831,-3.47402095794678,-1.73185336589813,0.495595216751099,0.515619218349457,0.18235744535923,-0.024110289290547,0.143083244562149,1.57506430149078
243,28787,28777,0.036231800913811,0.04212062433362,1.00764358043671,-1.13464343547821,-3.61331558227539,-0.874268174171448,0.495904326438904,0.515737950801849,0.18274661898613,0.060427613556385,0.114882946014404,1.5656875371933
244,28797,28787,-0.067060247063637,-0.00718754529953,1.05646121501923,-0.079094313085079,-7.09933090209961,-0.597928881645203,0.495785027742386,0.51584005355835,0.185026615858078,0.010078364983201,0.031861271709204,1.55718410015106
245,28807,28797,-0.183647468686104,-0.197951406240463,0.992422461509705,0.941796004772186,-6.60804796218872,-0.214055880904198,0.496463000774384,0.516308784484863,0.185571417212486,0.154848083853722,0.063201442360878,1.5561695098877
246,28817,28807,-0.173596918582916,-0.175714060664177,1.07996535301209,1.80199480056763,-6.64003562927246,-0.217595383524895,0.496287912130356,0.516277730464935,0.186263471841812,0.24329961836338,0.095493175089359,1.55382168292999
247,28827,28817,-0.066661015152931,0.070995628833771,1.11581349372864,0.861364781856537,-6.22612380981445,0.205175265669823,0.496424943208694,0.51627653837204,0.189003154635429,0.31946125626564,-0.00911767128855,1.55634438991547
248,28837,28827,-0.012555531226099,-0.067225687205792,1.0189151763916,0.450889259576798,-4.26726722717285,0.878882944583893,0.496567755937576,0.517036259174347,0.189855605363846,0.157382950186729,0.123557090759277,1.53630447387695
249,28847,28837,-0.17382138967514,-0.254903137683868,1.38543331623077,-0.061078105121851,-7.11993503570557,-2.02683901786804,0.498115181922913,0.516634881496429,0.19090510904789,0.249607115983963,0.158648610115051,1.54089736938477
250,28857,28847,0.028810355812311,-0.002101278398186,1.05347228050232,0.112127892673016,-6.36762619018555,-2.70750617980957,0.498406678438187,0.516594648361206,0.192380875349045,0.338017642498016,0.16781684756279,1.52586197853088
251,28867,28857,-0.16170471906662,-0.312683641910553,1.06576192378998,0.310275077819824,-8.16312503814697,-2.12720584869385,0.498558968305588,0.516649484634399,0.193789646029472,0.410930305719376,0.166982755064964,1.50046575069428
252,28877,28867,0.045391984283924,0.016285056248307,0.969417691230774,0.23891469836235,-11.7446088790894,-3.23489117622375,0.498725384473801,0.51669192314148,0.195251002907753,0.434233546257019,0.094849489629269,1.48160207271576
253,28887,28877,-0.1327745616436,0.011614982970059,1.05810916423798,-0.64796644449234,-11.4210109710693,-3.95477294921875,0.499324262142181,0.517158806324005,0.196707248687744,0.585658729076386,0.170969530940056,1.44515669345856
254,28897,28887,0.049933988600969,0.051356885582209,0.964422643184662,-0.119493253529072,-10.8973522186279,-4.30418348312378,0.499367535114288,0.51680338382721,0.196951106190681,0.798568546772003,0.229259952902794,1.40305626392365
255,28907,28897,0.021164415404201,-0.032151266932488,0.978341221809387,1.77021837234497,-9.08079242706299,-3.62098264694214,0.499052137136459,0.516425311565399,0.198375344276428,0.980019152164459,0.000227301672567,1.3943772315979
256,28917,28907,0.086607374250889,-0.035388562828302,0.973231315612793,2.12361359596252,-5.07502937316895,-4.64303350448608,0.498679578304291,0.517721354961395,0.199874505400658,1.11397063732147,0.051279753446579,1.35313630104065
257,28927,28917,0.064573265612125,0.060572121292353,0.923199534416199,1.94904625415802,2.62696695327759,-3.30406093597412,0.498454421758652,0.517654836177826,0.200126111507416,1.02753889560699,-0.124188438057899,1.33749866485596
258,28937,28927,-0.017449863255024,0.014400605112314,0.940975844860077,1.91116833686829,6.35761976242065,-3.95404553413391,0.499259918928146,0.519023597240448,0.201511189341545,1.18796980381012,-0.12044508010149,1.30341160297394
