number,timestamp_start,timestamp_end,acc.x,acc.y,acc.z,gyro.x,gyro.y,gyro.z,stateEstimate.x,stateEstimate.y,stateEstimate.z,stabilizer.pitch,stabilizer.roll,stabilizer.yaw
0,188434,188432,-0.01213944144547,-0.229878053069115,0.679855883121491,-20.8597946166992,-11.6960916519165,0.662069141864777,0.521026492118835,0.50463193655014,0.063492566347122,-0.610558211803436,-0.705849528312683,4.55004787445068
1,188444,188442,-0.17435497045517,-0.270421236753464,1.28476274013519,-19.3769359588623,-12.0246753692627,0.516160488128662,0.520819365978241,0.503945827484131,0.062194798141718,-0.321077883243561,-0.970650374889374,4.53240633010864
2,188454,188452,0.043254811316729,0.172055318951607,1.03222465515137,-14.2044343948364,-7.92576360702515,0.902116000652313,0.521217048168182,0.50348311662674,0.062422782182694,-0.323878109455109,-1.30356788635254,4.54322195053101
3,188464,188462,-0.109140008687973,-0.050172667950392,0.885285556316376,-12.9460201263428,-10.7964468002319,0.100105874240398,0.521156847476959,0.502254903316498,0.062913008034229,-0.150248154997826,-1.29466724395752,4.54583644866943
4,188474,188472,-0.183501377701759,-0.005566346924752,1.05146133899689,-12.7377634048462,-5.28813314437866,-0.503104448318481,0.521320700645447,0.502315878868103,0.063365027308464,-0.082986667752266,-1.74574673175812,4.52689981460571
5,188484,188482,0.003145220456645,0.131704598665237,0.973053634166718,-8.66895389556885,-0.871609389781952,-1.57092106342316,0.521957039833069,0.500866770744324,0.064501166343689,-0.217823028564453,-1.56858515739441,4.57717609405518
6,188494,188492,-0.139378562569618,-0.098096154630184,1.1093602180481,-3.70056653022766,0.82354736328125,-1.70864796638489,0.522375345230103,0.500445425510407,0.064732737839222,-0.251864969730377,-1.73271882534027,4.56430530548096
7,188504,188502,0.064092874526978,0.122063957154751,0.951482772827148,-3.43988513946533,1.68655407428741,-1.70983099937439,0.522434830665588,0.500316500663757,0.065383762121201,-0.184827044606209,-1.94608402252197,4.51941108703613
8,188514,188512,-0.093747645616531,-0.043757114559412,1.05099499225616,-0.337523698806763,0.084665894508362,-1.50209188461304,0.522476315498352,0.499570906162262,0.065979652106762,-0.112922139465809,-1.87608742713928,4.48062419891357
9,188524,188522,-0.064892813563347,0.09882453083992,0.999692380428314,3.09978580474854,-0.77943742275238,-0.826074481010437,0.522859215736389,0.499269515275955,0.066239781677723,-0.163957625627518,-1.90963089466095,4.4887433052063
10,188534,188532,-0.104995295405388,-0.104474313557148,1.13414490222931,4.33241510391235,-1.28240382671356,-1.39774918556213,0.522613048553467,0.499040544033051,0.066621422767639,0.010458084754646,-1.92829310894012,4.42588806152344
11,188544,188542,0.034848902374506,0.145625695586205,1.0283887386322,8.50269412994385,4.3678765296936,0.19668972492218,0.523001730442047,0.498873859643936,0.06719683110714,-0.09382813423872,-1.89881277084351,4.45385932922363
12,188554,188552,0.025932114571333,-0.2542544901371,1.04230606555939,9.97310352325439,3.20236015319824,-0.244931295514107,0.523317515850067,0.498650401830673,0.067648649215698,-0.192656829953194,-1.77725911140442,4.47015523910522
13,188564,188562,-0.02886837348342,-0.06566283851862,1.15806293487549,9.41913414001465,4.80873250961304,-0.645299673080444,0.523372411727905,0.498624861240387,0.068203091621399,-0.150583609938622,-1.74375188350678,4.44085693359375
14,188574,188572,0.097064137458801,-0.210160240530968,1.05488562583923,8.47357845306397,-6.33235597610474,-0.855003595352173,0.523487210273743,0.498842149972916,0.068669058382511,-0.161577969789505,-1.74016869068146,4.43236780166626
15,188584,188582,0.006702463608235,-0.162148296833038,1.32379615306854,11.0620965957642,-12.5677547454834,-0.567489206790924,0.523263692855835,0.499107420444488,0.069109208881855,-0.043763272464275,-1.82129776477814,4.39014434814453
16,188594,188592,0.212850525975227,-0.078499332070351,1.13782382011414,11.9973239898682,-16.9525718688965,-1.06962633132935,0.524853408336639,0.49926233291626,0.071174003183842,-0.452322691679001,-1.69034147262573,4.57108736038208
17,188604,188602,0.117348343133926,-0.182790577411652,1.13669800758362,13.1964464187622,-21.6278057098389,-2.33764743804932,0.525139927864075,0.499927639961243,0.072293840348721,-0.229574471712112,-1.74247014522553,4.53924465179443
18,188614,188612,0.150783762335777,-0.054414220154286,1.02965593338013,13.780029296875,-22.7484912872314,-2.10529971122742,0.525516390800476,0.500199437141418,0.073903426527977,0.013741347007454,-1.58603572845459,4.51147413253784
19,188624,188622,-0.005129953846335,-0.045901495963335,1.19657564163208,16.6179218292236,-19.9414386749268,-2.17538189888,0.525269985198975,0.500443637371063,0.076098412275314,0.457942128181457,-1.43451046943665,4.42305612564087
20,188634,188632,0.014686131849885,0.057981979101896,1.02683448791504,19.4552135467529,-16.3616199493408,-2.55927610397339,0.526592075824737,0.501628935337067,0.07635086029768,0.218733757734299,-1.5421017408371,4.53792190551758
21,188644,188642,0.004848333075643,0.095390103757382,1.10676741600037,18.4637470245361,-15.5147371292114,-3.26367902755737,0.526815831661224,0.502499580383301,0.078029111027718,0.465474903583527,-1.46814060211182,4.48888683319092
22,188654,188652,0.007409482263029,0.314422100782394,0.884933412075043,20.1159420013428,-15.2653865814209,-4.09209156036377,0.527811169624329,0.503468334674835,0.078868836164475,0.39337033033371,-1.36212611198425,4.5204348564148
23,188664,188662,0.028338488191366,0.113104283809662,0.975388467311859,23.9530029296875,-15.4655132293701,-4.91302871704102,0.528343856334686,0.504473388195038,0.080208316445351,0.548374533653259,-1.25190472602844,4.48352336883545
24,188674,188672,-0.084421321749687,-0.096646301448345,1.05832743644714,25.916446685791,-12.9763221740723,-5.11497783660889,0.528570711612701,0.505058526992798,0.083541266620159,0.855235457420349,-0.896132826805115,4.39408397674561
25,188684,188682,0.035258356481791,0.206686049699783,0.769943773746491,23.9952907562256,-8.30282115936279,-3.80127596855164,0.528889119625092,0.50538033246994,0.085846275091171,1.06376910209656,-0.460876315832138,4.31427192687988
26,188694,188692,-0.357510149478912,-0.101061560213566,0.897874414920807,20.7124614715576,-3.69281697273254,-3.81435894966125,0.528718590736389,0.506011009216309,0.087395511567593,1.33895397186279,-0.21405565738678,4.23929262161255
27,188704,188702,-0.200299873948097,0.088589362800121,1.29990363121033,16.6468772888184,-0.306839734315872,-5.12421083450317,0.52927953004837,0.506809115409851,0.087938211858273,1.26161170005798,-0.034488376230002,4.23235988616943
28,188714,188712,0.138103604316711,0.372281789779663,0.748376965522766,14.454158782959,8.74617195129395,-2.35931158065796,0.52979052066803,0.507421851158142,0.089513145387173,1.24933552742004,0.178929060697556,4.18252849578857
29,188724,188722,-0.305376052856445,-0.226638779044151,0.820137023925781,8.89336681365967,9.24086570739746,-1.30680799484253,0.530630886554718,0.50799560546875,0.090926364064217,1.01586484909058,0.392816364765167,4.14608287811279
30,188734,188732,-0.136752799153328,-0.283929169178009,1.28076362609863,-0.161093831062317,5.74180507659912,-1.90717625617981,0.530516028404236,0.508725464344025,0.090641051530838,1.10109674930573,0.463146775960922,4.1384654045105
31,188744,188742,0.286208510398865,0.233007311820984,0.983153581619263,-5.97285175323486,5.345290184021,-1.85449886322021,0.530462682247162,0.509120166301727,0.092000372707844,1.19762444496155,0.580463230609894,4.1029896736145
32,188754,188752,-0.218820556998253,-0.013809711672366,0.79693078994751,-6.78159093856812,0.434285312891007,-2.09990739822388,0.530045509338379,0.509337842464447,0.093060724437237,1.36863934993744,0.6299067735672,4.07086753845215
33,188764,188762,-0.220312595367432,-0.114069171249866,1.04875230789185,-4.90933752059937,-5.50565910339356,-3.14159536361694,0.529609501361847,0.509606242179871,0.093707874417305,1.48468363285065,0.632470190525055,4.04824590682983
34,188774,188772,0.041351899504662,0.057065583765507,0.97784411907196,-5.72649145126343,-4.30682897567749,-3.84560704231262,0.530346512794495,0.510076403617859,0.095754221081734,1.26986563205719,0.595837473869324,3.99166655540466
35,188784,188782,-0.054971762001515,-0.082801789045334,0.87820428609848,-3.46398210525513,-1.32531881332397,-2.46861791610718,0.531110763549805,0.511023879051209,0.097120478749275,1.10416865348816,0.389711737632751,3.96644949913025
36,188794,188792,-0.126764863729477,-0.22574283182621,1.10551011562347,-2.82917785644531,-0.044685028493404,-3.64099025726318,0.530895352363586,0.511369466781616,0.099089324474335,1.28242862224579,0.448633253574371,3.93842172622681
37,188804,188802,-0.050369538366795,0.14796844124794,1.0985769033432,-2.01564526557922,2.69446992874145,-5.89154624938965,0.530256628990173,0.512088775634766,0.100106097757816,1.54427790641785,0.336937546730041,3.93568110466003
38,188814,188812,0.043861337006092,0.09085126966238,0.707063317298889,3.56155371665955,8.85289573669434,-4.09669017791748,0.53012216091156,0.512008547782898,0.101858951151371,1.56643307209015,0.507187247276306,3.84215497970581
39,188824,188822,-0.485202223062515,-0.074585661292076,0.940432548522949,7.84357070922852,13.940619468689,-2.07651400566101,0.530221581459045,0.512548983097076,0.1034841760993,1.4182550907135,0.510517716407776,3.80698847770691
40,188834,188832,-0.292304813861847,-0.063470497727394,1.22662138938904,8.43633651733398,15.2387886047363,-2.82878494262695,0.530038356781006,0.512864828109741,0.104389578104019,1.33854401111603,0.614461958408356,3.77883696556091
41,188844,188842,-0.15603095293045,0.229981973767281,1.00781953334808,6.53297472000122,17.3550605773926,-1.50488924980164,0.529793620109558,0.513162136077881,0.105540744960308,1.26606380939484,0.712363958358765,3.74438166618347
42,188854,188852,-0.118199527263641,-0.089105129241943,0.777801692485809,5.98337650299072,14.639838218689,-1.89070808887482,0.529827415943146,0.514451801776886,0.107064731419086,1.03222870826721,0.539061725139618,3.77464461326599
43,188864,188862,-0.247680053114891,-0.021215375512838,1.08585107326508,4.79069900512695,9.54522609710693,-1.71684157848358,0.529957056045532,0.514406442642212,0.109354928135872,0.806643903255463,0.808637976646423,3.72038674354553
44,188874,188872,-0.097971715033054,0.256789237260818,0.877500951290131,4.97250270843506,5.58185434341431,-2.2267599105835,0.529560089111328,0.515061914920807,0.110613629221916,0.802946984767914,0.788846492767334,3.72131013870239
45,188884,188882,-0.253725528717041,-0.031294547021389,0.742482662200928,7.16582202911377,1.92154693603516,-1.20302736759186,0.529730200767517,0.515166401863098,0.111943766474724,0.654224872589111,0.938790857791901,3.67460060119629
46,188894,188892,-0.232010185718536,-0.086224958300591,1.08549797534943,8.05417442321777,-0.913367450237274,-1.42378270626068,0.529539883136749,0.515575885772705,0.112983606755734,0.638658821582794,0.995218932628632,3.67037534713745
47,188904,188902,0.095705017447472,-0.380982875823975,0.585851192474365,4.32591485977173,-2.18240928649902,-0.75400984287262,0.52936726808548,0.515638530254364,0.111840069293976,0.699565529823303,1.11411571502686,3.6555118560791
48,188914,188912,0.028173102065921,0.02160862274468,0.522747576236725,-0.327890664339066,-3.99766635894775,1.12496376037598,0.529244780540466,0.515838921070099,0.112531311810017,0.682188510894775,1.24321007728577,3.64359498023987
49,188924,188922,-0.16121868789196,-0.121301151812077,0.785986244678497,-7.58064460754395,-6.37206935882568,0.56945788860321,0.528923869132996,0.516572952270508,0.112927995622158,0.713987350463867,1.13163101673126,3.66561198234558
50,188934,188932,-0.060219716280699,-0.082650102674961,0.954965353012085,-13.0913133621216,-7.12166500091553,-0.659456133842468,0.528734803199768,0.516828596591949,0.112879753112793,0.757825911045074,1.13183903694153,3.66804909706116
51,188944,188942,-0.085459925234318,0.218932017683983,0.826095998287201,-15.2472152709961,-6.08225584030151,-1.26353442668915,0.528664112091064,0.517539262771606,0.112608082592487,0.79199492931366,0.92461109161377,3.66648578643799
52,188954,188952,-0.211904153227806,0.145250335335732,0.943023264408112,-16.0783233642578,-3.02015161514282,-1.90042555332184,0.5285604596138,0.517939984798431,0.112240456044674,0.819147765636444,0.764968991279602,3.65789699554443
53,188964,188962,-0.238571286201477,0.19902029633522,1.14327216148376,-13.2328014373779,1.32745397090912,-1.65458953380585,0.528459310531616,0.517375826835632,0.113874554634094,0.842469215393066,0.853903353214264,3.61360239982605
54,188974,188972,0.019739324226976,-0.021603833884001,1.01194059848785,-7.67788982391357,7.62154483795166,-1.56006860733032,0.528275489807129,0.517641305923462,0.11360689997673,0.862073600292206,0.667344212532043,3.60138177871704
55,188984,188982,-0.196855247020721,-0.121984407305717,0.927507877349854,-1.59102356433868,10.0287322998047,-1.12570786476135,0.527474761009216,0.517149269580841,0.113110557198524,0.98261559009552,0.730325162410736,3.59686541557312
56,188994,188992,-0.228982716798782,0.06302759796381,1.11585199832916,0.798528611660004,10.8634662628174,-1.27510285377502,0.528201282024383,0.517966687679291,0.114621266722679,0.595954298973084,0.511642038822174,3.56450390815735
57,189004,189002,-0.035813998430967,0.126021638512611,0.95742791891098,1.53161025047302,13.0876970291138,-0.298096030950546,0.527336180210114,0.517009079456329,0.115545272827148,0.732436656951904,0.818565487861633,3.55107450485229
58,189014,189012,0.000471081177238,-0.006322225555778,1.03471171855927,-0.935835003852844,8.0558557510376,-1.43871760368347,0.528146803379059,0.518870174884796,0.117864958941937,0.293353021144867,0.355757802724838,3.54675936698914
59,189024,189022,0.065121725201607,-0.118040770292282,0.97872656583786,-0.652341961860657,2.90931987762451,-0.515801131725311,0.527617692947388,0.519074320793152,0.11858207732439,0.338421523571014,0.389144629240036,3.54885220527649
60,189034,189032,0.203794226050377,-0.269686460494995,1.04934310913086,-2.98067164421082,-3.75803375244141,-1.82351171970367,0.527305662631989,0.519095659255981,0.118624910712242,0.368759036064148,0.472388863563538,3.54188966751099
61,189044,189042,-0.052476920187473,-0.109282024204731,1.06912219524384,-3.93657422065735,-6.78401756286621,-1.06173872947693,0.526916563510895,0.51919424533844,0.118734896183014,0.450780361890793,0.478556901216507,3.52753186225891
62,189054,189052,0.041332010179758,-0.077416263520718,1.12495303153992,-4.51900243759155,-7.13298654556274,-0.987956702709198,0.526788473129272,0.519339203834534,0.118955321609974,0.47034952044487,0.44971165060997,3.51071691513062
63,189064,189062,0.094521276652813,0.123661004006863,1.14448285102844,-3.65267467498779,-2.49760890007019,-0.275107055902481,0.526687145233154,0.519547581672668,0.119168050587177,0.496789187192917,0.384793490171432,3.49819040298462
64,189074,189072,-0.078577265143395,0.148735657334328,1.0151504278183,-1.71009135246277,0.363609075546265,-1.25940322875977,0.526584982872009,0.519735813140869,0.119572207331657,0.494757056236267,0.323518991470337,3.49343800544739
65,189084,189082,-0.136234521865845,0.112022757530212,1.07825911045074,0.753737330436706,3.50206637382507,-0.94063925743103,0.526362061500549,0.520065128803253,0.120024606585503,0.469576120376587,0.236192137002945,3.49111199378967
66,189094,189092,-0.046275585889816,0.025674797594547,1.06672930717468,2.35614538192749,9.66040992736816,0.722155570983887,0.526475489139557,0.520035684108734,0.120694622397423,0.352712273597717,0.302351623773575,3.47885727882385
67,189104,189102,-0.107590243220329,-0.095279052853584,1.02551960945129,0.22914257645607,9.7993803024292,-0.422887712717056,0.526097416877747,0.520410716533661,0.120392240583897,0.349469363689423,0.260383695363998,3.4873583316803
68,189114,189112,-0.014048731885851,-0.009532060474157,1.04242956638336,0.2544766664505,9.28613567352295,-1.27370822429657,0.524307906627655,0.520259439945221,0.120810426771641,0.712911546230316,0.364646017551422,3.5015664100647
69,189124,189122,0.005500102415681,-0.159781098365784,1.00390589237213,1.52195155620575,12.1822738647461,0.641804277896881,0.524415850639343,0.520171701908112,0.122741676867008,0.444286704063415,0.440924167633057,3.48277521133423
70,189134,189132,0.133658722043037,-0.153097733855248,1.16677057743073,0.984524428844452,11.8454999923706,-0.263363867998123,0.524026811122894,0.520379662513733,0.122649803757668,0.327441185712814,0.422242075204849,3.48540472984314
71,189144,189142,0.206128060817718,-0.131953880190849,0.945752918720245,0.241591230034828,14.2802906036377,-0.457659184932709,0.523494005203247,0.521066784858704,0.123409487307072,0.237060964107513,0.261144012212753,3.48441910743713
72,189154,189152,0.059126101434231,-0.289260029792786,1.14190542697907,-0.077998630702496,10.8580493927002,-0.617877066135407,0.52350914478302,0.521064102649689,0.124541118741035,-0.038575123995543,0.34229177236557,3.47942614555359
73,189164,189162,0.149902388453484,0.143834173679352,1.20966577529907,1.11159336566925,9.57603740692139,0.915612459182739,0.523177564144135,0.521164834499359,0.12495131790638,-0.164673537015915,0.359335541725159,3.48113751411438
74,189174,189172,-0.016585640609264,-0.091757453978062,0.871789872646332,1.3059458732605,8.00164127349854,0.03035319969058,0.523619711399078,0.521438300609589,0.125912547111511,-0.486839801073074,0.317319571971893,3.47873520851135
75,189184,189182,-0.043907463550568,0.031571123749018,1.21342349052429,-0.456306606531143,3.72600173950195,0.118131048977375,0.523214399814606,0.521221518516541,0.127197176218033,-0.556500315666199,0.422696709632874,3.49513149261475
76,189194,189192,-0.017956640571356,0.295910656452179,1.04717969894409,0.092829570174217,0.883113384246826,0.586053967475891,0.522246420383453,0.521577596664429,0.128743380308151,-0.413771450519562,0.31247866153717,3.49112486839294
77,189204,189202,0.125203207135201,0.040707290172577,1.0092054605484,-2.09960436820984,-4.29178285598755,-0.283762544393539,0.522154629230499,0.521573483943939,0.130076065659523,-0.523167431354523,0.328538954257965,3.50387263298035
78,189214,189212,-0.014332760125399,0.168176487088203,1.10651254653931,-3.99957203865051,-6.98498106002808,-0.249816626310348,0.521993577480316,0.522359192371368,0.131396219134331,-0.532427370548248,0.143408820033073,3.47911214828491
79,189224,189222,-0.075865179300308,0.034576408565044,1.05555784702301,-3.83384943008423,-9.43242359161377,-0.949349284172058,0.522032082080841,0.52247953414917,0.132822886109352,-0.548753201961517,0.117565728724003,3.48099255561829
80,189234,189232,-0.122570723295212,0.034648332744837,1.01475167274475,-1.50600612163544,-10.3168983459473,-0.945446729660034,0.522205591201782,0.522672951221466,0.132068738341331,-0.526643633842468,0.093036904931069,3.4729642868042
81,189244,189242,-0.060468681156635,0.334930330514908,0.996248364448547,-2.7931444644928,-11.6144018173218,-2.14339280128479,0.521976232528687,0.522901058197022,0.133464783430099,-0.412642896175384,0.044414509087801,3.45999073982239
82,189254,189252,-0.048183593899012,0.053636133670807,0.840972423553467,0.790801823139191,-9.44881725311279,-1.74436318874359,0.521864771842957,0.522966206073761,0.134889513254166,-0.322825103998184,0.025097230449319,3.44833517074585
83,189264,189262,-0.020416064187884,0.006472590379417,0.963528335094452,3.53364849090576,-6.18471527099609,-0.980489015579224,0.521884381771088,0.523830533027649,0.135085165500641,-0.290388256311417,-0.13404780626297,3.4142701625824
84,189274,189272,0.036058757454157,0.131204649806023,0.999816954135895,5.58319616317749,-3.39402294158936,-1.18054628372192,0.521789014339447,0.52390056848526,0.136356055736542,-0.212669119238853,-0.051935806870461,3.40724897384644
85,189284,189282,0.015324069187045,0.007733883801848,0.72895610332489,9.69500160217285,0.167333960533142,-0.72072446346283,0.521918118000031,0.523755013942719,0.137600272893906,-0.235314354300499,0.068379670381546,3.41308736801147
86,189294,189292,-0.125257223844528,-0.162254959344864,1.02713859081268,9.31684017181397,1.17222213745117,-1.2385778427124,0.522074460983276,0.523495852947235,0.138085305690765,-0.305272877216339,0.251118361949921,3.42319202423096
87,189304,189302,0.046232078224421,0.057178553193808,1.11542570590973,6.73589277267456,0.118028491735458,-2.23832750320435,0.521755456924439,0.523682177066803,0.139054045081139,-0.260990828275681,0.307402968406677,3.40233898162842
88,189314,189312,-0.027092147618532,0.181999251246452,0.877113401889801,6.22604656219482,2.93900609016418,-0.993502974510193,0.522163808345795,0.524840831756592,0.140139356255531,-0.384796857833862,0.127411499619484,3.36142826080322
89,189324,189322,0.051862496882677,-0.182744935154915,0.956380248069763,2.01303648948669,1.55829811096191,-1.40537452697754,0.522309243679047,0.525028169155121,0.141107231378555,-0.4573635160923,0.215584978461266,3.35230302810669
90,189334,189332,0.029172075912356,0.030135821551085,1.09959495067596,-1.44572246074677,-0.298475116491318,-1.43723237514496,0.521369934082031,0.524071216583252,0.143758594989777,-0.262103348970413,0.50173956155777,3.3666307926178
91,189344,189342,0.112460188567638,-0.051783509552479,0.816476106643677,-3.23768615722656,-1.2567104101181,-2.14285206794739,0.521472752094269,0.523758351802826,0.144691124558449,-0.313660264015198,0.551761150360107,3.35747408866882
92,189354,189352,0.044468428939581,-0.270393371582031,1.10865819454193,-6.45204925537109,-2.5286500453949,-2.07653164863586,0.519287645816803,0.52403599023819,0.1456388682127,0.109837926924229,0.431772321462631,3.32817339897156
93,189364,189362,0.29832249879837,0.02920394949615,1.18667614459991,-6.93012285232544,-1.65129721164703,-2.50209403038025,0.521936297416687,0.525457859039307,0.147555664181709,-0.513451516628265,0.116882726550102,3.2724552154541
94,189374,189372,0.280203551054001,0.002261507092044,0.745453000068665,-3.72713875770569,3.90488839149475,-1.13053488731384,0.522051095962524,0.525594592094421,0.148747026920319,-0.45894119143486,0.06970389932394,3.24996948242187
95,189384,189382,-0.001389325945638,-0.5071160197258,0.821157157421112,-1.54775512218475,2.05792546272278,-1.66422832012177,0.519210577011108,0.523957967758179,0.151730000972748,0.105115704238415,0.395834773778915,3.27193474769592
96,189394,189392,-0.110310673713684,-0.03417706489563,1.05471849441528,2.4945662021637,1.6840934753418,0.080983079969883,0.519201159477234,0.523910343647003,0.150486886501312,-0.01236688438803,0.393499732017517,3.25775027275085
97,189404,189402,0.254244923591614,0.2087042927742,0.969517290592194,2.74096155166626,3.01408696174622,0.172139331698418,0.518993973731995,0.524569034576416,0.151597797870636,-0.053527399897575,0.255390375852585,3.24500370025635
98,189414,189412,0.119684457778931,-0.352859675884247,0.576820075511932,3.40588641166687,6.29147243499756,0.126181125640869,0.519231140613556,0.525290906429291,0.152603521943092,-0.180842101573944,0.155432194471359,3.23484754562378
99,189424,189422,-0.234117612242699,-0.911592483520508,0.963308215141296,2.42768621444702,6.38011026382446,1.18803727626801,0.523203313350678,0.526655852794647,0.153146862983704,-1.07677268981934,0.049593288451433,3.22002196311951
100,189434,189432,-0.026342952623963,0.023578012362123,1.36780476570129,2.29978656768799,5.16811513900757,1.69712269306183,0.523019373416901,0.526750504970551,0.15225288271904,-0.932706892490387,0.160929083824158,3.23333954811096
101,189444,189442,0.048940856009722,0.028373038396239,1.00514340400696,0.277678638696671,-0.016229882836342,0.833718121051788,0.522810876369476,0.526669561862946,0.153327226638794,-0.793340384960175,0.240462929010391,3.25444889068604
102,189454,189452,-0.234431356191635,-0.508248209953308,0.59909325838089,2.62785792350769,-5.38504457473755,1.48484420776367,0.523306846618652,0.526439607143402,0.153968945145607,-0.837185978889465,0.357010364532471,3.27871990203857
103,189464,189462,-0.404799908399582,-0.320882230997086,0.966434478759766,-0.788984358310699,-14.8118371963501,0.63347339630127,0.522878408432007,0.526312708854675,0.152500376105309,-0.655738711357117,0.464619427919388,3.2986798286438
104,189474,189472,-0.135382428765297,0.152825906872749,0.96122819185257,-2.54961776733398,-21.2132015228271,0.123326130211353,0.522226572036743,0.527094185352325,0.152889221906662,-0.328594893217087,0.321480751037598,3.28319954872131
105,189484,189482,-0.103736989200115,0.105041906237602,0.946855962276459,-3.18514609336853,-22.2938232421875,-0.071413151919842,0.52162766456604,0.527194201946258,0.152894735336304,0.01204495690763,0.313456118106842,3.29185366630554
106,189494,189492,-0.145436599850655,0.074971936643124,1.04031908512115,-3.78199505805969,-22.6970615386963,-1.60255646705627,0.521168529987335,0.527044415473938,0.150165140628815,0.299109101295471,0.339421182870865,3.29963636398315
107,189504,189502,-0.127478659152985,0.047503009438515,1.06740701198578,-1.20047092437744,-15.5707092285156,-0.253186911344528,0.52236419916153,0.527602434158325,0.150715738534927,0.264600485563278,0.21138522028923,3.27527093887329
108,189514,189512,0.04018485173583,0.066663756966591,1.04090201854706,-1.00992035865784,-8.22159099578857,-1.52384412288666,0.522725462913513,0.527678370475769,0.150722965598106,0.373427122831345,0.218089655041695,3.27343893051147
109,189524,189522,-0.17235466837883,-0.002796377055347,1.13958513736725,0.290108919143677,-0.163274437189102,-1.61761462688446,0.522591471672058,0.527844250202179,0.150740787386894,0.521075546741486,0.199470996856689,3.26230883598328
110,189534,189532,-0.067581243813038,0.390872687101364,1.00759792327881,0.997792840003967,6.92095756530762,-0.480827003717423,0.522612690925598,0.527970969676971,0.149166822433472,0.553287148475647,0.177274778485298,3.24207663536072
111,189544,189542,0.001420689746737,0.149307832121849,0.954108119010925,2.01395583152771,11.7835521697998,-0.849544942378998,0.521831512451172,0.527856647968292,0.149168118834496,0.678658843040466,0.217298835515976,3.23577737808228
112,189554,189552,-0.059721332043409,-0.115568101406097,1.01797592639923,3.366135597229,11.5763034820557,-0.739919602870941,0.521481931209564,0.527747571468353,0.14912873506546,0.619704186916351,0.277634710073471,3.22514081001282
113,189564,189562,0.165006652474403,-0.244055598974228,0.917078137397766,1.74400758743286,9.83882617950439,-0.785365402698517,0.521377801895142,0.528317391872406,0.148517623543739,0.475911766290665,0.208384111523628,3.21991419792175
114,189574,189572,-0.045201621949673,-0.244924440979958,0.949756026268005,-1.42016649246216,7.5410304069519,-1.66681480407715,0.52167820930481,0.528222918510437,0.148631289601326,0.290955305099487,0.307121515274048,3.20989918708801
115,189584,189582,-0.10809999704361,0.068837255239487,1.03052353858948,-2.55431056022644,4.23523426055908,-2.60217952728271,0.521635115146637,0.528228461742401,0.148576632142067,0.232654899358749,0.334468692541122,3.19119191169739
116,189594,189592,-0.102167770266533,-0.044443104416132,1.08523416519165,-3.73276567459106,2.42491626739502,-1.8444105386734,0.520958483219147,0.528551340103149,0.147290542721748,0.327664256095886,0.281971275806427,3.16563487052917
117,189604,189602,0.027813022956252,-0.243131592869759,1.09509778022766,-3.15464448928833,1.37243568897247,-1.56741893291473,0.520544767379761,0.528553187847137,0.147181808948517,0.3764888048172,0.301156669855118,3.14654755592346
118,189614,189612,0.14226445555687,-0.174797490239143,0.976040899753571,-3.11338782310486,-0.015132963657379,-1.53801357746124,0.520488917827606,0.528602778911591,0.147231370210648,0.370300114154816,0.304392874240875,3.12841582298279
119,189624,189622,0.221233263611794,-0.264027088880539,1.03927326202393,-2.24405360221863,2.10989856719971,0.64732950925827,0.520115435123444,0.527882397174835,0.146805241703987,0.430190443992615,0.439225733280182,3.10642838478088
120,189634,189632,0.074959516525269,-0.178655609488487,1.13506233692169,-1.1273900270462,1.09092509746552,-1.21983933448792,0.51969701051712,0.527887165546417,0.146809622645378,0.470205336809158,0.413706332445145,3.10741519927979
121,189644,189642,0.154254391789436,-0.067614726722241,1.07588446140289,-1.05557918548584,4.06879806518555,0.184173837304115,0.51904708147049,0.527815461158752,0.146822512149811,0.541601777076721,0.407471239566803,3.09765887260437
122,189654,189652,0.046043552458286,-0.11084720492363,1.26531147956848,-3.90461540222168,3.80122113227844,-1.09859025478363,0.519144415855408,0.528211712837219,0.147311389446259,0.401409596204758,0.315587908029556,3.10204076766968
123,189664,189662,0.079003192484379,-0.018175603821874,1.0519425868988,-3.93692946434021,4.98685264587402,-1.64403653144836,0.519349098205566,0.528382241725922,0.14729979634285,0.25310218334198,0.242145985364914,3.09149408340454
124,189674,189672,0.05115918815136,0.027853637933731,1.11328566074371,-3.43314647674561,7.08618259429932,-1.06650483608246,0.519563853740692,0.528540730476379,0.147789224982262,0.08775670081377,0.167012929916382,3.07963538169861
125,189684,189682,-0.091040067374706,0.226126596331596,0.974632501602173,-3.77020645141602,8.70789909362793,-0.597767233848572,0.519103467464447,0.528714299201965,0.148411899805069,0.066143088042736,0.0833555534482,3.0710301399231
126,189694,189692,-0.102947048842907,0.124434389173985,0.875107944011688,-0.949173867702484,8.38664531707764,-0.810396134853363,0.519130289554596,0.528865039348602,0.148877590894699,-0.083948828279972,0.013575003482401,3.065993309021
127,189704,189702,-0.10087139159441,0.21359096467495,0.996397852897644,-0.54784893989563,5.86883783340454,-0.938744783401489,0.519018530845642,0.528925240039825,0.149413079023361,-0.18736657500267,-0.004598265513778,3.0624372959137
128,189714,189712,-0.065066799521446,0.148985683917999,0.834534168243408,0.593736946582794,3.87377023696899,-0.890952348709106,0.518544256687164,0.528555572032928,0.149980902671814,-0.175575643777847,0.071924515068531,3.04879641532898
129,189724,189722,-0.242992088198662,0.008260636590421,1.09008753299713,3.28156876564026,1.76995849609375,-1.87663733959198,0.517174899578095,0.52881783246994,0.148510441184044,0.015242747031152,0.018711050972343,3.03974962234497
130,189734,189732,-0.023247806355357,0.291793316602707,0.941403150558472,1.60375535488129,2.62368321418762,-2.08936738967895,0.517181754112244,0.528713583946228,0.14901103079319,-0.079641662538052,0.087232552468777,3.02168703079224
131,189744,189742,-0.103103078901768,-0.108392752707005,0.90057784318924,4.58419132232666,3.77349233627319,-0.989665567874908,0.517627358436585,0.528977394104004,0.149488359689713,-0.258405834436417,0.076844625174999,3.00646138191223
132,189754,189752,-0.024134403094649,0.055924948304892,1.17193114757538,5.7759370803833,4.63218879699707,-0.690804302692413,0.51759272813797,0.528784215450287,0.14974682033062,-0.278660178184509,0.189818382263184,2.99806070327759
133,189764,189762,0.103775031864643,-0.14372293651104,0.991401016712189,3.71070051193237,6.59867763519287,-0.177061975002289,0.517359435558319,0.528897166252136,0.151209622621536,-0.286985248327255,0.246180653572082,2.98759412765503
134,189774,189772,-0.088089309632778,-0.437054395675659,1.26880347728729,0.769908845424652,4.32672119140625,0.172731384634972,0.516700863838196,0.529041528701782,0.151677578687668,-0.236931294202805,0.284428864717484,2.98227596282959
135,189784,189782,0.312137067317963,0.060124732553959,1.11871206760407,-0.776457190513611,2.1295599937439,-1.08107936382294,0.516725122928619,0.529000878334045,0.152283564209938,-0.286530703306198,0.33122244477272,2.98736882209778
136,189794,189792,0.152789652347565,-0.398611754179001,0.810581386089325,-2.98529958724976,3.1183602809906,-0.438495069742203,0.516850292682648,0.528955519199371,0.155012339353561,-0.373915880918503,0.35524708032608,2.9824538230896
137,189804,189802,-0.009341803379357,-0.114647276699543,1.02515399456024,-4.95208787918091,-1.38092279434204,-0.604260444641113,0.516566097736359,0.52869576215744,0.155830100178719,-0.377968519926071,0.388545334339142,2.97918462753296
138,189814,189812,0.110399782657623,0.169335424900055,1.02211546897888,-5.42152404785156,-6.07901954650879,-0.786677837371826,0.515789449214935,0.528469562530518,0.156567275524139,-0.254501760005951,0.364797830581665,2.97590517997742
139,189824,189822,0.009498755447567,-0.151638463139534,1.12552869319916,-6.91480016708374,-7.94512271881104,-1.24911868572235,0.515608131885529,0.52905946969986,0.15765954554081,-0.255333960056305,0.172126099467278,2.95827102661133
140,189834,189832,0.163199156522751,0.114889830350876,1.00038635730743,-6.81616020202637,-9.07589244842529,-1.73867511749268,0.516467154026032,0.529391467571258,0.158606141805649,-0.399461656808853,0.041434541344643,2.93778896331787
141,189844,189842,0.071216188371182,-0.165265440940857,1.01117467880249,-2.9634485244751,-8.60808086395264,-2.40365695953369,0.517431139945984,0.52927565574646,0.159367516636848,-0.513375818729401,0.00203849026002,2.9266984462738
142,189854,189852,0.078635841608048,-0.039041869342327,1.11231517791748,-3.5091278553009,-7.05166387557983,-2.56094551086426,0.517193078994751,0.529062151908875,0.159647479653358,-0.38201168179512,-0.007955219596624,2.90618991851807
143,189864,189862,0.020871749147773,0.179805040359497,0.985687017440796,0.566923558712006,-6.99798488616943,-2.71900105476379,0.516658902168274,0.528824150562286,0.160683497786522,-0.212420150637627,-0.037895865738392,2.88017678260803
144,189874,189872,-0.061572674661875,0.048567641526461,1.01866149902344,2.42636919021606,-6.27508163452148,-3.14939665794373,0.515767991542816,0.528780817985535,0.161641806364059,-0.028732642531395,-0.069208838045597,2.85563087463379
145,189884,189882,0.054904337972403,-0.002069018781185,0.990839779376983,2.58385324478149,-4.95220756530762,-3.09929609298706,0.515635371208191,0.52757066488266,0.162614241242409,0.010908078402281,0.144487768411636,2.83814215660095
146,189894,189892,0.006685412023216,0.133689314126968,0.861022055149078,0.077359721064568,0.079635687172413,-2.48485898971558,0.516811490058899,0.527657389640808,0.163010701537132,-0.197028607130051,0.101759746670723,2.81168460845947
147,189904,189902,-0.110100343823433,0.127502620220184,0.910799920558929,0.60851925611496,0.387089669704437,-2.11137890815735,0.517267286777496,0.527661621570587,0.163886234164238,-0.283415913581848,0.062336351722479,2.78729772567749
148,189914,189912,-0.221527814865112,0.24025784432888,1.05376625061035,-4.99616813659668,-0.92794805765152,-3.07894659042358,0.517281472682953,0.527763664722443,0.164750531315804,-0.275210857391357,0.00787247903645,2.76073718070984
149,189924,189922,-0.003718571737409,0.211363241076469,0.795252799987793,-4.51301574707031,-0.005088132806122,-2.5507755279541,0.516546785831451,0.527982711791992,0.165456414222717,-0.128261730074883,-0.119338057935238,2.72521996498108
150,189934,189932,-0.151704475283623,0.124794736504555,0.957850515842438,-3.73418593406677,-1.47026240825653,-2.53642010688782,0.516115546226501,0.527735233306885,0.166126057505608,-0.068975016474724,-0.142092183232307,2.70019936561584
151,189944,189942,-0.185233220458031,0.243406310677528,0.977712452411652,-3.5975935459137,0.391200572252274,-1.56859183311462,0.516108751296997,0.527920842170715,0.166707694530487,-0.07719448953867,-0.23955075442791,2.67197895050049
152,189954,189952,0.015321089886129,0.235069170594215,0.734310567378998,-0.491470694541931,0.827487945556641,-1.57489418983459,0.515813648700714,0.528056263923645,0.166446536779404,-0.055450238287449,-0.318072229623795,2.65324592590332
153,189964,189962,-0.141765251755714,-0.012555815279484,0.906792640686035,2.01815962791443,-0.406087279319763,-2.69674468040466,0.51875227689743,0.528196454048157,0.167066305875778,-0.61571592092514,-0.323637157678604,2.66290521621704
154,189974,189972,-0.100389592349529,0.36035618185997,0.972542464733124,2.56656384468079,-0.282223880290985,-2.73242568969727,0.517492532730103,0.529438495635986,0.16796325147152,-0.337832599878311,-0.545347988605499,2.60791301727295
155,189984,189982,-0.147209018468857,0.223464280366898,0.8056640625,6.37006235122681,-3.35077142715454,-1.9348464012146,0.518359124660492,0.531080424785614,0.16752190887928,-0.492904156446457,-0.776875019073486,2.57657623291016
156,189994,189992,-0.252000212669373,0.202563598752022,1.09490144252777,8.52139091491699,-7.21829986572266,-2.88303732872009,0.518686652183533,0.53000944852829,0.169485613703728,-0.477056086063385,-0.451264709234238,2.57607555389404
157,190004,190002,-0.147703215479851,0.300622940063477,0.910997211933136,12.2293968200684,-7.84850883483887,-2.11765003204346,0.518506586551666,0.529687404632568,0.169787123799324,-0.330075949430466,-0.28257218003273,2.54778838157654
158,190014,190012,-0.265982627868652,0.072498962283135,0.792944431304931,14.5829019546509,-9.73365688323975,-2.15903377532959,0.519094467163086,0.531761348247528,0.169764593243599,-0.353431522846222,-0.497931003570557,2.51465201377869
159,190024,190022,-0.261287003755569,0.255390226840973,1.20076620578766,9.91026115417481,-13.8191051483154,-2.96946668624878,0.518176019191742,0.532983362674713,0.170056357979775,-0.06360399723053,-0.499347895383835,2.46695971488953
160,190034,190032,-0.038455210626125,0.324266880750656,1.16254091262817,16.092924118042,-7.18883466720581,-1.0368480682373,0.517874538898468,0.531534194946289,0.170911282300949,0.140544012188911,-0.036684468388558,2.45311141014099
161,190044,190042,-0.341994374990463,-0.124210096895695,1.00159347057343,17.2381134033203,-4.44420576095581,-0.575090944766998,0.517781674861908,0.529991567134857,0.171127885580063,0.232518166303635,0.434828788042069,2.45566129684448
162,190054,190052,-0.241811200976372,0.036285556852818,1.07412087917328,13.1768808364868,-1.38455247879028,-2.40573048591614,0.515886843204498,0.529342293739319,0.174321338534355,0.615288972854614,0.70317018032074,2.42345523834229
163,190064,190062,0.117036700248718,-0.020459910854697,0.876392602920532,6.53724336624146,6.12704038619995,-1.22059059143066,0.516760289669037,0.531944394111633,0.176406994462013,0.416625410318375,0.378842622041702,2.41060090065002
164,190074,190072,-0.036261029541493,-0.50615656375885,1.06192123889923,-1.93065714836121,7.80823516845703,-0.639268517494202,0.516572177410126,0.5317023396492,0.177034378051758,0.366884231567383,0.551662027835846,2.39687895774841
165,190084,190082,0.220447286963463,-0.036265276372433,1.23436605930328,-6.16323137283325,11.3980798721313,-0.716103971004486,0.515442550182343,0.532697200775147,0.177474126219749,0.466620087623596,0.40413910150528,2.38867974281311
166,190094,190092,0.117773965001106,-0.067750237882137,0.851331114768982,-9.13315677642822,12.2453804016113,-1.65339076519012,0.515095055103302,0.532880246639252,0.178387016057968,0.373007565736771,0.367100805044174,2.38251566886902
167,190104,190102,-0.076771333813667,-0.258254766464233,1.19307804107666,-10.9515075683594,8.11478805541992,-1.5478458404541,0.515421509742737,0.533262550830841,0.179277583956718,0.130971431732178,0.280249208211899,2.36880707740784
168,190114,190112,-0.099485374987125,-0.030280403792858,1.18594479560852,-7.24978160858154,5.42494964599609,-2.29093408584595,0.51610392332077,0.533687353134155,0.180125966668129,-0.092605531215668,0.160417929291725,2.34929513931274
169,190124,190122,0.059613645076752,-0.077535793185234,0.993463754653931,-3.41095876693726,3.34595775604248,-2.1819577217102,0.516335427761078,0.533495128154755,0.183160349726677,-0.198176205158234,0.166951611638069,2.32361912727356
170,190134,190132,0.001690106699243,-0.084693282842636,1.12999999523163,-1.28265714645386,-3.61555099487305,-1.71940612792969,0.516345322132111,0.533104658126831,0.184331864118576,-0.240419015288353,0.235785588622093,2.2980649471283
171,190144,190142,0.029417522251606,0.092322818934918,0.959030032157898,4.04701948165894,-6.80949687957764,-2.12919807434082,0.515617370605469,0.533025741577148,0.185595527291298,-0.083696372807026,0.25429105758667,2.27752113342285
172,190154,190152,0.046864334493876,-0.167042955756187,0.97907543182373,4.55146837234497,-9.15518379211426,-3.18643283843994,0.515321910381317,0.532723844051361,0.185481131076813,0.012413237243891,0.353384226560593,2.25735449790955
173,190164,190162,0.083372503519058,-0.101394779980183,1.1120297908783,3.99139785766602,-8.54541015625,-2.11859846115112,0.515357136726379,0.532444596290588,0.186587065458298,0.070157907903195,0.45737612247467,2.22720408439636
174,190174,190172,0.069996364414692,0.218706905841827,1.06653344631195,3.57349538803101,-8.34873104095459,-3.57334232330322,0.51585328578949,0.533221364021301,0.187872067093849,0.062341939657927,0.37384295463562,2.20179510116577
175,190184,190182,0.084554336965084,0.002737530739978,0.958004951477051,3.75608229637146,-5.87627172470093,-2.72679662704468,0.515467047691345,0.53300279378891,0.188415795564652,0.204708397388458,0.451653957366943,2.16929292678833
176,190194,190192,-0.061704494059086,-0.085932180285454,1.16461789608002,-0.60338032245636,0.782884061336517,-2.15152454376221,0.515344440937042,0.53284877538681,0.189599320292473,0.274505585432053,0.525287330150604,2.1416220664978
177,190204,190202,-0.039167318493128,0.040156476199627,1.10815060138702,-1.53541803359985,3.5916736125946,-1.68227338790894,0.515830159187317,0.531958162784576,0.190819337964058,0.185942888259888,0.654727756977081,2.11373543739319
178,190214,190212,-0.030290329828858,0.092990800738335,0.781944572925568,-1.15743207931519,6.10515880584717,-1.87037682533264,0.515069127082825,0.531869649887085,0.19234898686409,0.25363963842392,0.614526867866516,2.10094237327576
179,190224,190222,-0.226189970970154,-0.136815637350082,0.969268441200256,-4.98158264160156,7.4961576461792,-2.91472053527832,0.515343129634857,0.532402873039246,0.193607613444328,0.111430130898952,0.506482005119324,2.08369898796082
180,190234,190232,-0.463347136974335,-0.112275362014771,1.1737025976181,-7.18056058883667,8.87865161895752,-1.9145370721817,0.515527904033661,0.533004701137543,0.194802552461624,-0.010044141672552,0.358214050531387,2.05596685409546
181,190244,190242,-0.580738723278046,0.007878307253122,0.938618659973144,-5.67002296447754,7.90793609619141,-2.73142457008362,0.515754044055939,0.533188402652741,0.196021139621735,-0.135866388678551,0.264286637306213,2.03302955627441
182,190254,190252,-0.082822367548943,-0.063702635467053,0.847827792167664,-2.73905825614929,5.94921493530273,-1.57863545417786,0.51595950126648,0.532834649085999,0.196248680353165,-0.245426535606384,0.276127934455872,2.00656890869141
183,190264,190262,0.037684246897698,-0.274193853139877,1.13787996768951,-2.33431315422058,2.52559661865234,-1.44291591644287,0.515134990215302,0.530783355236053,0.197430983185768,-0.156511679291725,0.541202545166016,1.99458396434784
184,190274,190272,0.106281615793705,0.031300932168961,1.22996556758881,-0.165285378694534,0.572595119476318,-1.96749567985535,0.515160024166107,0.5307976603508,0.198646262288094,-0.174314007163048,0.470916658639908,1.97832894325256
185,190284,190282,0.15668611228466,0.201958373188972,0.743379414081574,3.79910445213318,1.59678709506989,-1.03801941871643,0.515569806098938,0.5308598279953,0.197217404842377,-0.237091407179832,0.430527955293655,1.95349824428558
186,190294,190292,-0.092756778001785,-0.435466170310974,0.5215784907341,2.04140067100525,-2.31398558616638,-0.309462696313858,0.514520764350891,0.530730664730072,0.198292925953865,-0.112755134701729,0.455429047346115,1.94982397556305
187,190304,190302,0.281856328248978,-0.083482399582863,0.97834724187851,-4.13293790817261,-5.35596370697022,1.16463387012482,0.514480650424957,0.530681073665619,0.198971211910248,-0.121993534266949,0.465460330247879,1.94631910324097
188,190314,190312,0.018305286765099,0.410305738449097,1.51798856258392,-2.72503066062927,-5.40037631988525,1.981565117836,0.513885915279388,0.530711591243744,0.199441999197006,0.013717056252062,0.381799042224884,1.95737516880035
189,190324,190322,-0.114990301430225,0.063151434063912,1.08464705944061,-3.91563844680786,-0.178764373064041,0.622180938720703,0.513850271701813,0.530343770980835,0.197179332375526,0.053340334445238,0.38086661696434,1.97346782684326
190,190334,190332,-0.09553848952055,-0.197283715009689,0.589369893074035,-0.546582460403442,3.92489123344421,1.49853372573853,0.513259589672089,0.530595421791077,0.197999477386475,0.101892605423927,0.286349296569824,1.98288130760193
191,190344,190342,-0.219679355621338,-0.409316569566727,0.432156175374985,-1.35100197792053,5.48624992370606,2.08367824554443,0.512284398078918,0.530765056610107,0.198546588420868,0.161367252469063,0.235347494482994,2.00334715843201
192,190354,190352,-0.393848598003387,-0.657179951667785,1.01994299888611,-6.13433790206909,-0.109264701604843,0.922760725021362,0.512454986572266,0.530980467796326,0.19894927740097,0.050149917602539,0.174347147345543,2.01791405677795
193,190364,190362,-0.135535955429077,-0.321927785873413,1.12302732467651,-9.44903755187988,3.76141881942749,1.36387658119202,0.512006640434265,0.53136932849884,0.198925718665123,0.070472732186318,0.04821464791894,2.02949690818787
194,190374,190372,-0.005418159067631,0.09423004090786,0.749293625354767,-5.65395212173462,4.69838047027588,0.105144940316677,0.512159466743469,0.53181391954422,0.19898846745491,-0.028591141104698,-0.100618146359921,2.03929042816162
195,190384,190382,-0.125848352909088,0.177503257989883,0.748810708522797,-1.67046177387238,5.94809865951538,-0.254409372806549,0.511317074298859,0.52978527545929,0.197346687316895,0.013809687457979,0.12880776822567,2.04204916954041
196,190394,190392,-0.143191605806351,-0.002065411768854,1.08574295043945,-1.95069026947021,3.24957704544067,-1.86024224758148,0.51100754737854,0.528802275657654,0.196894347667694,-0.037798319011927,0.211705818772316,2.03573322296143
197,190404,190402,-0.052799876779318,-0.077574662864208,1.03466069698334,1.03249478340149,3.47927689552307,-0.511569559574127,0.511144638061523,0.52885514497757,0.196582034230232,-0.129177525639534,0.145674020051956,2.01995038986206
198,190414,190412,-0.18141083419323,-0.136711731553078,0.740458071231842,1.10019588470459,8.02694225311279,-0.074417218565941,0.5113445520401,0.528809368610382,0.19629517197609,-0.235816970467567,0.123729377985001,2.01378703117371
199,190424,190422,-0.045706916600466,-0.062307022511959,0.931551456451416,-1.12735271453857,7.06163501739502,-0.655301332473755,0.511547565460205,0.528846561908722,0.192894861102104,-0.359855741262436,0.094532236456871,2.00706791877747
200,190434,190432,0.086767882108688,0.024886105209589,1.0413738489151,-6.21119546890259,4.48418378829956,0.047297328710556,0.510760068893433,0.526679039001465,0.192074343562126,-0.326948016881943,0.335256904363632,2.00611448287964
201,190444,190442,0.046925991773605,0.171198189258575,1.03714036941528,-6.50523948669434,5.5326042175293,-1.16350734233856,0.509835779666901,0.526904761791229,0.191510483622551,-0.288376986980438,0.171361327171326,2.00370717048645
202,190454,190452,-0.069819629192352,0.105892911553383,1.09698522090912,-9.97520637512207,2.70087313652039,-1.20494604110718,0.508817493915558,0.527261853218079,0.189299494028091,-0.242671996355057,-0.008081984706223,1.98709654808044
203,190464,190462,-0.024191109463573,0.041338790208101,1.04482614994049,-9.4693717956543,0.246785819530487,-1.57114350795746,0.510013937950134,0.52663916349411,0.18878860771656,-0.480374872684479,-0.047821223735809,1.97785127162933
204,190474,190472,-0.064647719264031,-0.047689490020275,0.996677696704864,-8.37074279785156,-0.438523083925247,-2.60343480110168,0.510009765625,0.527116417884827,0.188217729330063,-0.502258241176605,-0.249007225036621,1.95643091201782
205,190484,190482,-0.002363852923736,0.001469603274018,1.05605459213257,-7.36054515838623,0.76854407787323,-2.00488829612732,0.510046422481537,0.526504099369049,0.186179354786873,-0.51680052280426,-0.272754460573196,1.93232703208923
206,190494,190492,0.081992462277413,0.175371661782265,0.810011267662048,-5.56736612319946,3.54138016700745,-0.285856187343597,0.509590923786163,0.525793671607971,0.185522943735123,-0.480326414108276,-0.284568816423416,1.91590487957001
207,190504,190502,-0.259122937917709,-0.066815689206123,0.941043853759766,-2.13796854019165,-0.168923333287239,-0.839239120483398,0.509768962860107,0.525459110736847,0.184770837426186,-0.558005571365356,-0.325051963329315,1.91715526580811
208,190514,190512,-0.189182206988335,0.36220246553421,1.06699061393738,-2.98633098602295,-1.90685904026032,-1.6988981962204,0.509317696094513,0.52452564239502,0.184292986989021,-0.498672336339951,-0.259798914194107,1.91459369659424
209,190524,190522,-0.133561700582504,0.064436450600624,0.892933189868927,2.11645579338074,1.45321750640869,0.6866854429245,0.509356915950775,0.52470850944519,0.183582931756973,-0.515017211437225,-0.362361967563629,1.89850354194641
210,190534,190532,-0.107742860913277,-0.236897125840187,1.10650372505188,-1.36803817749023,-4.91390800476074,0.833733320236206,0.507916152477264,0.524194836616516,0.182791337370873,-0.318401277065277,-0.323976784944534,1.89584136009216
211,190544,190542,0.257233649492264,-0.08650778234005,1.01499176025391,-2.55648469924927,4.09132862091064,0.807752907276154,0.50744354724884,0.524319171905518,0.182006895542145,-0.263469159603119,-0.404655903577805,1.89662301540375
212,190554,190552,0.086802944540978,-0.324754387140274,1.30084371566772,-5.29333686828613,1.16480612754822,0.807678401470184,0.507540345191956,0.524032354354858,0.180993750691414,-0.3536057472229,-0.426757752895355,1.90550696849823
213,190564,190562,-0.128641247749329,-0.364273309707642,1.33699262142181,-5.2695484161377,-5.21497488021851,-0.050019502639771,0.507716357707977,0.523316860198975,0.180469945073128,-0.437197089195251,-0.411456376314163,1.92460310459137
214,190574,190572,-0.055700331926346,-0.271819412708283,1.13755762577057,-6.71195983886719,1.97289192676544,0.506967902183533,0.507148027420044,0.523637294769287,0.180282324552536,-0.358399718999863,-0.5707967877388,1.91222274303436
215,190584,190582,-0.014435108751059,0.196986749768257,0.990680158138275,-7.92087459564209,-2.03828978538513,1.14692187309265,0.50671124458313,0.523012638092041,0.179447337985039,-0.333768099546432,-0.582801401615143,1.91758036613464
216,190594,190592,-0.558144211769104,-0.100918918848038,1.00714123249054,-6.32421970367432,-2.21511816978455,-0.929777145385742,0.506669819355011,0.522873818874359,0.179431796073914,-0.347911596298218,-0.678508818149567,1.92806386947632
217,190604,190602,-0.297763109207153,-0.016820074990392,1.04749727249146,-2.8479278087616,-8.78082180023193,-0.590680599212647,0.506518125534058,0.523112952709198,0.179407671093941,-0.321378290653229,-0.804555177688599,1.91614675521851
218,190614,190612,0.085178755223751,-0.069867759943009,1.00091755390167,1.01128947734833,-3.76915240287781,0.545190691947937,0.505886316299439,0.52232038974762,0.18066893517971,-0.174059510231018,-0.731963455677033,1.91128599643707
219,190624,190622,-0.095781177282333,-0.457218378782272,1.21604287624359,2.27588582038879,-3.98824691772461,-0.027755746617913,0.50580221414566,0.522346317768097,0.180807068943977,-0.161798715591431,-0.76041305065155,1.91814732551575
220,190634,190632,-0.089104801416397,-0.285818755626678,1.21273052692413,-0.673650145530701,1.02153372764587,0.27530825138092,0.506211817264557,0.522331953048706,0.181113749742508,-0.234029114246368,-0.766260862350464,1.93158459663391
221,190644,190642,0.146064817905426,0.017525980249047,1.06880378723145,-2.90821647644043,1.23354244232178,-0.522163212299347,0.506196022033691,0.521886706352234,0.181564152240753,-0.254033714532852,-0.722357034683228,1.93923151493073
222,190654,190652,0.039640087634325,0.046181853860617,1.14969253540039,1.18548536300659,1.58762884140015,0.416949450969696,0.505302965641022,0.521388053894043,0.181245446205139,-0.137068375945091,-0.682810664176941,1.92647075653076
223,190664,190662,-0.027340106666088,0.16956102848053,1.05806052684784,1.28648519515991,-2.08824181556702,-1.40226554870605,0.504755854606628,0.521281778812408,0.181880414485931,-0.097333453595638,-0.693685650825501,1.91984295845032
224,190674,190672,-0.093027092516422,0.320323377847671,0.958788096904754,3.19061017036438,-3.1739513874054,-0.760397851467133,0.504596054553986,0.521177113056183,0.182634934782982,-0.088908597826958,-0.691104710102081,1.90890049934387
225,190684,190682,-0.239741176366806,0.100916713476181,0.903651416301727,5.20903539657593,1.05673158168793,0.529729664325714,0.503662109375,0.52059680223465,0.18239176273346,0.047736119478941,-0.59566593170166,1.88650476932526
226,190694,190692,-0.126650527119637,0.04030166938901,0.929577529430389,3.81315875053406,-1.59289860725403,-0.656475841999054,0.503259897232056,0.520437002182007,0.183009907603264,0.057620752602816,-0.552028477191925,1.88552892208099
227,190704,190702,0.016543252393603,-0.057310618460178,1.00573182106018,2.67727160453796,3.29643368721008,-0.884822487831116,0.503365039825439,0.520405054092407,0.183674782514572,-0.00826810952276,-0.53615140914917,1.89010751247406
228,190714,190712,0.073401726782322,-0.285414099693298,1.09843468666077,1.03002548217773,4.17886257171631,-1.96551012992859,0.503175854682922,0.520405292510986,0.183116674423218,-0.059495273977518,-0.535125017166138,1.88351464271545
229,190724,190722,0.191562801599503,-0.189424216747284,1.09582602977753,-2.27134251594543,6.63665723800659,-1.08461058139801,0.502962648868561,0.520484864711762,0.183674558997154,-0.114574991166592,-0.564365744590759,1.86515128612518
230,190734,190732,0.169538587331772,-0.263797402381897,1.09315621852875,-2.70421028137207,9.26616764068604,0.027889309450984,0.502377092838287,0.520563423633575,0.184290781617165,-0.135697051882744,-0.614034295082092,1.8483692407608
231,190744,190742,0.11709051579237,-0.163948088884354,1.19971585273743,-1.72203874588013,6.06521320343018,-1.8388147354126,0.502705693244934,0.520645558834076,0.185063987970352,-0.332218050956726,-0.65404486656189,1.85842394828796
232,190754,190752,0.169129759073257,0.055228713899851,1.06669652462006,2.94000887870789,7.63686037063599,-0.318428248167038,0.502976655960083,0.520648121833801,0.184447482228279,-0.471506088972092,-0.672426640987396,1.8501467704773
233,190764,190762,0.074103079736233,-0.194635525345802,1.08743536472321,4.18771409988403,2.92322158813477,-0.663762092590332,0.503187537193298,0.520058393478394,0.185327872633934,-0.598032474517822,-0.553017437458038,1.85224854946136
234,190774,190772,0.107144638895988,-0.037152651697397,1.03170919418335,3.11374878883362,1.54382693767548,-1.43518042564392,0.501864731311798,0.519825041294098,0.186452835798264,-0.427933782339096,-0.497166574001312,1.82339513301849
235,190784,190782,0.135558322072029,0.060812871903181,0.992194414138794,7.75393915176392,1.83605635166168,-1.24349462985992,0.501760601997376,0.519567251205444,0.187998786568642,-0.464215904474258,-0.432835757732391,1.81121265888214
236,190794,190792,-0.00604054518044,-0.039828151464462,1.13644671440125,5.492506980896,-5.96633720397949,-0.673105180263519,0.501161873340607,0.519188106060028,0.189017981290817,-0.40769574046135,-0.321213185787201,1.79285073280334
237,190804,190802,0.078888267278671,0.309288203716278,1.04697787761688,5.63690662384033,-0.426591366529465,-0.315651595592499,0.501301169395447,0.519798338413239,0.190252736210823,-0.419953733682632,-0.382418811321259,1.7873467206955
238,190814,190812,0.073686718940735,0.088392332196236,0.922659516334534,8.54442977905273,-4.96280670166016,-1.15391802787781,0.501588106155396,0.519908726215362,0.190014481544495,-0.48158124089241,-0.339257001876831,1.78993701934814
239,190824,190822,-0.030108543112874,0.022922148928046,1.26003110408783,3.38486504554749,-4.19377946853638,-0.927446603775024,0.501492440700531,0.519553899765015,0.191131874918938,-0.44106462597847,-0.204918265342712,1.78414916992188
240,190834,190832,-0.277447074651718,0.000788858684245,1.32689619064331,-1.44926106929779,-0.716865003108978,0.298571437597275,0.500902771949768,0.519341170787811,0.192390844225883,-0.332716464996338,-0.147437646985054,1.77243435382843
241,190844,190842,0.24171744287014,0.159187003970146,0.745721220970154,6.02401971817017,8.50914764404297,1.1832058429718,0.499561131000519,0.519653499126434,0.193837851285934,-0.168248161673546,-0.195798426866531,1.76231074333191
242,190854,190852,-0.088156275451183,-0.227809697389603,0.846857309341431,-0.7405064702034,0.409892469644547,0.40186882019043,0.499649703502655,0.520439624786377,0.192799374461174,-0.311629354953766,-0.264318019151688,1.77274799346924
243,190864,190862,-0.197264119982719,-0.042632207274437,1.31810319423676,-2.94769954681396,1.71407830715179,0.725570559501648,0.499693781137466,0.520446717739105,0.193965807557106,-0.367766171693802,-0.257842212915421,1.77929902076721
244,190874,190872,0.043666388839483,0.138616442680359,0.951557755470276,0.008978647179902,5.45461177825928,-0.458475083112717,0.500249326229095,0.520441234111786,0.195280283689499,-0.503219902515411,-0.26589760184288,1.79105114936829
245,190884,190882,-0.115423381328583,-0.051439505070448,0.765037536621094,-0.773398339748383,4.49882030487061,-1.43567883968353,0.500318050384522,0.519947230815887,0.194725841283798,-0.578444719314575,-0.180712774395943,1.79241192340851
246,190894,190892,-0.269134283065796,-0.138283103704453,1.04696953296661,-4.92307996749878,-3.54176759719849,-1.78747069835663,0.498773753643036,0.519421696662903,0.195841744542122,-0.390706181526184,-0.122008889913559,1.77327084541321
247,190904,190902,-0.155072897672653,0.138482615351677,0.986999273300171,-0.562973439693451,-4.13701581954956,-1.01408731937408,0.498595327138901,0.518976926803589,0.196816027164459,-0.36410790681839,-0.106259427964687,1.76064932346344
248,190914,190912,-0.060382664203644,0.074971966445446,0.96746963262558,1.2822597026825,-6.42509746551514,-1.59247124195099,0.498359501361847,0.51946097612381,0.197941079735756,-0.326651751995087,-0.196697399020195,1.7455313205719
249,190924,190922,-0.081656821072102,-0.10236418992281,1.22228276729584,-1.08070981502533,-7.63377189636231,-3.24789452552795,0.498119741678238,0.519412100315094,0.198922842741013,-0.263438016176224,-0.183829590678215,1.72934007644653
250,190934,190932,-0.053586453199387,-0.059092964977026,1.17009687423706,1.72140955924988,-4.87656593322754,-2.19859218597412,0.497896790504456,0.519926607608795,0.200000122189522,-0.191726133227348,-0.265815019607544,1.69680643081665
251,190944,190942,0.201358571648598,-0.085239507257938,0.733551442623138,5.32353830337524,1.22032177448273,-2.61982464790344,0.497837066650391,0.519848108291626,0.199406832456589,-0.168357193470001,-0.226167157292366,1.67401969432831
252,190954,190952,0.081621631979942,-0.453737407922745,0.782182633876801,6.48056983947754,3.48978900909424,-2.57467937469482,0.498030215501785,0.519224226474762,0.200433984398842,-0.237584993243217,-0.069541767239571,1.65412592887878
253,190964,190962,-0.24353089928627,-0.325855880975723,1.26859390735626,4.30741834640503,1.99302113056183,-2.10198855400085,0.498311877250671,0.519636213779449,0.201273992657661,-0.327679425477982,-0.069786056876183,1.62788152694702
254,190974,190972,0.084638811647892,-0.118195131421089,1.1556431055069,4.15212678909302,4.33828544616699,-2.55003714561462,0.498702555894852,0.519460439682007,0.202166497707367,-0.41263085603714,0.005857689771801,1.60936915874481
255,190984,190982,0.211492761969566,-0.126456066966057,0.716400980949402,6.44773483276367,7.39601945877075,-2.50930237770081,0.498622536659241,0.518795609474182,0.20244237780571,-0.445512712001801,0.145472139120102,1.58842992782593
256,190994,190992,0.132773637771606,-0.391778618097305,0.742939233779907,3.22491025924683,2.06608438491821,-2.40535545349121,0.497975468635559,0.518772900104523,0.203342258930206,-0.420628666877747,0.192904010415077,1.56212723255157
