number,timestamp_start,timestamp_end,acc.x,acc.y,acc.z,gyro.x,gyro.y,gyro.z,stateEstimate.x,stateEstimate.y,stateEstimate.z,stabilizer.pitch,stabilizer.roll,stabilizer.yaw
0,78098,78097,-0.440698981285095,0.162963479757309,0.75227165222168,-8.10323715209961,42.0427398681641,16.4803028106689,0.505428910255432,0.524232625961304,0.068981170654297,-1.02901041507721,2.31557178497314,3.18742942810059
1,78108,78107,-0.210585162043571,0.136398658156395,0.611963212490082,-0.167321935296059,40.6569786071777,17.088436126709,0.503004491329193,0.524027466773987,0.072554714977741,-1.41792905330658,2.31566286087036,3.37017178535461
2,78118,78117,-0.021523064002395,-0.089520387351513,0.663769960403442,-13.0592079162598,23.4351806640625,14.0278015136719,0.502247214317322,0.523701250553131,0.075175523757935,-2.07657241821289,2.27504348754883,3.44273734092712
3,78128,78127,-0.087441392242909,0.016931761056185,1.05332326889038,-21.6136569976807,12.8449420928955,13.1123838424683,0.499660640954971,0.522847294807434,0.077805787324905,-2.11129641532898,2.29766130447388,3.64717149734497
4,78138,78137,0.131461933255196,0.094239138066769,1.10559451580048,-25.6774978637695,6.95139741897583,12.3978252410889,0.498421251773834,0.522466659545898,0.081767216324806,-2.44883728027344,2.10250782966614,3.72075271606445
5,78148,78147,0.189002081751823,0.208474084734917,0.888808488845825,-20.2458801269531,3.14472150802612,10.5491209030151,0.497783899307251,0.521838247776032,0.080392479896545,-2.53941679000854,1.9171439409256,3.82704901695251
6,78158,78157,0.032232489436865,0.225566700100899,0.526817917823792,-16.405912399292,6.75888061523438,10.7842092514038,0.496433973312378,0.521266579627991,0.083176404237747,-2.63792324066162,1.75560534000397,3.92699146270752
7,78168,78167,-0.044069468975067,0.020419053733349,0.307420581579208,-16.6126499176025,8.40107917785645,9.34583950042725,0.496072709560394,0.520606338977814,0.085590250790119,-2.90686249732971,1.61192488670349,3.97826814651489
8,78178,78177,-0.284851849079132,-0.221490159630775,0.477253079414368,-14.8003339767456,0.148398607969284,8.02780628204346,0.495738655328751,0.520047247409821,0.086952328681946,-3.09721517562866,1.44763505458832,4.02661037445068
9,78188,78187,-0.673023581504822,-0.223654702305794,0.824956178665161,-15.2259159088135,-6.89657545089722,7.35078430175781,0.495842188596726,0.51992005109787,0.084880247712135,-3.17613506317139,1.20715284347534,4.03240442276001
10,78198,78197,-0.370414882898331,-0.221289336681366,0.995799422264099,-18.4883232116699,-8.74291324615479,6.00670909881592,0.494888514280319,0.51940929889679,0.085814706981182,-3.12686896324158,1.06401717662811,4.10480785369873
11,78208,78207,-0.145267382264137,-0.161377847194672,1.28571283817291,-17.102445602417,-10.3393831253052,4.5753607749939,0.494212806224823,0.519257187843323,0.086848504841328,-3.11015748977661,0.841732263565064,4.11228036880493
12,78218,78217,-0.122695326805115,0.154549524188042,1.34249448776245,-12.4056329727173,-7.54280757904053,3.21367287635803,0.493935853242874,0.519116520881653,0.086129754781723,-3.09617471694946,0.661476492881775,4.1170220375061
13,78228,78227,0.216549232602119,0.162151321768761,0.939902305603027,-7.72129964828491,5.34601354598999,2.32804179191589,0.492114037275314,0.517782330513001,0.08793231099844,-2.90082478523254,0.769093632698059,4.28765773773193
14,78238,78237,-0.001241648104042,0.257026612758636,0.61298394203186,-3.40864682197571,18.5573234558105,2.24414277076721,0.492540121078491,0.517076432704926,0.089695602655411,-3.22257733345032,0.731161534786224,4.30495595932007
15,78248,78247,-0.008636333048344,-0.111987940967083,0.476505726575851,-0.250315815210342,17.8939876556396,3.03615474700928,0.492378950119019,0.517093300819397,0.088421642780304,-3.38576507568359,0.589759707450867,4.25913047790527
16,78258,78257,0.053726319223642,-0.179128244519234,0.717763841152191,-7.42141246795654,6.58109521865845,2.92945003509521,0.492926090955734,0.516978263854981,0.088494710624218,-3.69293165206909,0.480599343776703,4.23687791824341
17,78268,78267,-0.11348570138216,0.134898230433464,1.08941245079041,-21.4645576477051,-11.7928647994995,3.42859125137329,0.492294371128082,0.516679584980011,0.088990703225136,-3.6725971698761,0.333753824234009,4.25569677352905
18,78278,78277,0.082394845783711,0.362669289112091,1.2830103635788,-24.3678970336914,-8.7251148223877,3.77957963943481,0.491579085588455,0.515647888183594,0.08951635658741,-3.5313138961792,0.27330294251442,4.37333822250366
19,78288,78287,0.092624329030514,0.317985653877258,0.849428296089172,-10.6551599502563,-4.86760997772217,3.51083087921143,0.491635590791702,0.516114473342896,0.088525369763374,-3.48125100135803,-0.088107064366341,4.2917046546936
20,78298,78297,-0.090864904224873,-0.218087881803513,0.835726201534271,-7.61327505111694,-20.9122161865234,1.98642790317535,0.491782337427139,0.515245735645294,0.08868707716465,-3.39989256858826,-0.076874233782291,4.3962345123291
21,78308,78307,-0.072785541415215,-0.265444725751877,1.06280207633972,-6.93063306808472,-33.1843338012695,2.12092852592468,0.491152703762054,0.515248000621796,0.089304491877556,-3.04491400718689,-0.251142591238022,4.35539484024048
22,78318,78317,0.016699800267816,0.078932844102383,0.962710797786713,3.31658029556274,-30.2857360839844,2.2535674571991,0.491086512804031,0.515324115753174,0.087166666984558,-2.7158932685852,-0.351447343826294,4.33391571044922
23,78328,78327,-0.01289090141654,-0.014190117828548,0.82249242067337,5.3191933631897,-30.5161762237549,2.13007831573486,0.491264939308167,0.515364348888397,0.086985222995281,-2.46280455589294,-0.379113376140594,4.3232274055481
24,78338,78337,-0.045208483934403,0.075896605849266,1.01121020317078,4.71816730499268,-33.1688537597656,0.194305256009102,0.491773128509522,0.515278279781342,0.086582265794277,-2.26307654380798,-0.325986862182617,4.34540319442749
25,78348,78347,0.127242609858513,0.173743516206741,1.01132392883301,10.9988422393799,-19.3692245483398,-1.15391457080841,0.492226123809814,0.51531845331192,0.083567820489407,-2.0484824180603,-0.261078983545303,4.34711122512817
26,78358,78357,-0.031406980007887,0.000434428366134,0.997812569141388,12.4171104431152,-8.12204170227051,-0.47706139087677,0.492608398199081,0.514755010604858,0.083159059286118,-1.91877102851868,-0.054879758507013,4.37946844100952
27,78368,78367,-0.05299573764205,0.141587600111961,1.02866697311401,4.30481004714966,-5.60863542556763,-0.555757880210876,0.49332183599472,0.515165269374847,0.082707569003105,-1.93964123725891,-0.069713272154331,4.33867835998535
28,78378,78377,-0.204234927892685,0.252201497554779,0.958648681640625,0.520208835601807,5.42563009262085,0.453697979450226,0.493473738431931,0.515077233314514,0.082684151828289,-1.87931752204895,-0.042465761303902,4.32316017150879
29,78388,78387,-0.072010338306427,-0.04533364623785,0.937510669231415,-5.5637354850769,2.2471616268158,-0.102789171040058,0.493723779916763,0.515257835388184,0.078770853579044,-1.91805899143219,-0.077188611030579,4.31922054290772
30,78398,78397,-0.068256549537182,-0.03455001115799,0.953185021877289,-7.34789896011353,2.12816023826599,1.45028042793274,0.494593054056168,0.51490443944931,0.077873826026917,-2.04803395271301,-0.073042660951614,4.35700941085815
31,78408,78407,-0.054516565054655,0.138886630535126,1.08185243606567,-6.86849308013916,-16.0123958587646,0.861011922359467,0.494530588388443,0.514843165874481,0.078119516372681,-1.86961460113525,-0.178012505173683,4.34377956390381
32,78418,78417,-0.09567691385746,0.033928368240595,1.14210259914398,0.294313579797745,-8.37664318084717,2.23262643814087,0.495744466781616,0.515162110328674,0.075388096272945,-1.959632396698,-0.285601854324341,4.36275339126587
33,78428,78427,0.003786203684285,-0.047725982964039,0.971150457859039,2.45233511924744,-26.1432647705078,1.29537081718445,0.496269136667252,0.515225648880005,0.0749926045537,-1.82109844684601,-0.307755410671234,4.37908554077148
34,78438,78437,-0.060209255665541,-0.112170420587063,1.11258172988892,5.25314331054688,-28.037353515625,1.59761571884155,0.497237712144852,0.515265882015228,0.074044696986675,-1.6674907207489,-0.287884473800659,4.40546607971191
35,78448,78447,0.051613412797451,-0.009759780950844,0.9495849609375,6.72683620452881,-37.855583190918,-0.246981248259544,0.497211694717407,0.515234053134918,0.072593241930008,-1.20947849750519,-0.247332319617271,4.40042400360107
36,78458,78457,0.079351685941219,-0.059410884976387,1.04298841953278,6.28343057632446,-34.4699172973633,-0.13936473429203,0.498185217380524,0.515198469161987,0.071942321956158,-0.95329362154007,-0.186416804790497,4.41372346878052
37,78468,78467,0.139561727643013,-0.264697939157486,1.12740302085876,2.53635811805725,-30.7780647277832,-0.364391326904297,0.499704778194428,0.51521497964859,0.070761665701866,-0.85505610704422,-0.135152727365494,4.43973398208618
38,78478,78477,-0.003979685716331,-0.115092515945435,1.25337052345276,-1.59344899654388,-22.1278705596924,1.77680027484894,0.499737441539764,0.515204966068268,0.072515830397606,-0.287852346897125,-0.147209316492081,4.4128041267395
39,78488,78487,-0.096578031778336,-0.040696904063225,1.24407851696014,0.414673119783402,-20.7260608673096,0.051345646381378,0.501342356204987,0.515653014183044,0.070496678352356,-0.382237285375595,-0.245835334062576,4.45047998428345
40,78498,78497,-0.194934859871864,0.106712110340595,1.12131905555725,-2.26768064498901,-14.5223379135132,0.395389378070831,0.50150853395462,0.515629291534424,0.07199627161026,0.055272955447435,-0.218297004699707,4.42984294891357
41,78508,78507,-0.15204618871212,0.020963804796338,1.03852999210358,3.7692015171051,-15.6438369750977,0.825738191604614,0.502393484115601,0.515707135200501,0.07227498292923,0.171789720654488,-0.211704954504967,4.43757629394531
42,78518,78517,0.049541894346476,0.046160202473402,0.949077844619751,5.75861120223999,-19.8283500671387,1.84409689903259,0.502835810184479,0.515663623809814,0.068178720772266,0.299492925405502,-0.128977283835411,4.45590114593506
43,78528,78527,-0.01024885289371,-0.189815998077393,1.18491458892822,5.25471639633179,-14.2767124176025,3.05162286758423,0.503378629684448,0.516163885593414,0.068379439413548,0.538587987422943,-0.208413913846016,4.47762393951416
44,78538,78537,0.014096396043897,-0.05917901545763,1.09692895412445,3.18323707580566,-9.52665328979492,4.01865530014038,0.504601299762726,0.516131162643433,0.068587772548199,0.525791943073273,-0.111257642507553,4.51816701889038
45,78548,78547,0.053727708756924,-0.093184433877468,1.13554871082306,1.75414371490479,-4.45655632019043,3.66096138954163,0.504716455936432,0.516049206256866,0.067364789545536,0.747724950313568,-0.036054164171219,4.5420036315918
46,78558,78557,-0.059232823550701,-0.06836062669754,1.07440233230591,-2.88547515869141,-3.85747694969177,3.13991022109985,0.50559139251709,0.516624212265015,0.067745484411717,0.71601527929306,-0.159165233373642,4.60155200958252
47,78568,78567,-0.078740365803242,0.219921544194221,1.10619223117828,0.369573920965195,-0.971230208873749,4.14492559432983,0.505905210971832,0.517235636711121,0.068151198327541,0.846714079380035,-0.295329123735428,4.65012216567993
48,78578,78577,-0.070672281086445,-0.158422574400902,1.09547984600067,3.87126231193542,-10.3614463806152,2.99502849578857,0.505709290504456,0.51772952079773,0.068301774561405,1.07738363742828,-0.350167691707611,4.68570995330811
49,78588,78587,0.000337287521688,-0.078052684664726,1.10495460033417,9.04940700531006,-6.88562917709351,2.93471193313599,0.506876051425934,0.517671287059784,0.069709956645966,0.974890351295471,-0.178056970238686,4.70726537704468
50,78598,78597,-0.023227529600263,-0.139622047543526,1.18184471130371,9.29673385620117,0.250830829143524,2.83806085586548,0.506660461425781,0.51798540353775,0.070705942809582,1.22935378551483,-0.119740530848503,4.72049427032471
51,78608,78607,0.111980438232422,0.030204057693482,1.03733265399933,8.70798397064209,1.03541827201843,1.870649933815,0.506602942943573,0.518276274204254,0.071377046406269,1.31589126586914,-0.027150064706802,4.74589967727661
52,78618,78617,0.160641923546791,0.07771435379982,1.17679703235626,11.8094320297241,10.2582092285156,2.08072423934937,0.506506562232971,0.517966091632843,0.071501843631268,1.37154185771942,0.224277660250664,4.71484041213989
53,78628,78627,-0.140107527375221,0.15242911875248,1.09117686748505,11.0531949996948,0.174406751990318,0.990995049476624,0.50669926404953,0.517648220062256,0.072490580379963,1.28751564025879,0.459737032651901,4.69436550140381
54,78638,78637,-0.083156622946262,0.100664794445038,1.10232865810394,8.94265937805176,7.91143846511841,1.10109829902649,0.505484402179718,0.516986668109894,0.072406969964504,1.58762276172638,0.687285423278809,4.63721513748169
55,78648,78647,-0.433575987815857,-0.23960730433464,1.05824327468872,0.420066505670548,2.85395359992981,1.21713042259216,0.505790889263153,0.516855418682098,0.076390147209168,1.42105317115784,0.731022536754608,4.64866256713867
56,78658,78657,-0.149021252989769,-0.179983109235764,1.05586063861847,-9.26375389099121,5.47340536117554,0.509844243526459,0.505289137363434,0.516873955726624,0.077728688716889,1.45628094673157,0.629050314426422,4.68006610870361
57,78668,78667,0.026023840531707,-0.118822336196899,1.12687122821808,-17.3644866943359,8.10730361938477,-0.177602156996727,0.50426197052002,0.51710718870163,0.078642494976521,1.58011996746063,0.392773181200027,4.72212696075439
58,78678,78677,0.121906913816929,0.018000237643719,1.01838147640228,-21.847541809082,7.49877405166626,-2.3378438949585,0.503050029277802,0.517491817474365,0.080368481576443,1.68828916549683,0.092079423367977,4.75848484039307
59,78688,78687,0.1078896895051,0.178195267915726,1.06469750404358,-20.314338684082,10.1644744873047,-1.4277777671814,0.502091944217682,0.517958343029022,0.081317357718945,1.6832537651062,-0.215036913752556,4.78270196914673
60,78698,78697,-0.046520870178938,0.227235391736031,0.969368577003479,-13.4999465942383,7.92988920211792,-2.69304180145264,0.502054572105408,0.518397867679596,0.084135606884956,1.42795026302338,-0.434180617332459,4.78649377822876
61,78708,78707,-0.121924094855785,0.090643025934696,1.03173518180847,-4.343421459198,12.6928596496582,-2.99544525146484,0.501939058303833,0.518641650676727,0.086344577372074,1.21737420558929,-0.521322786808014,4.75192785263062
62,78718,78717,-0.088382810354233,-0.079292304813862,1.05291140079498,3.86728429794312,16.3822860717773,-2.92466282844543,0.501721978187561,0.518619418144226,0.086803272366524,1.01416885852814,-0.476709336042404,4.70163249969482
63,78728,78727,-0.117012828588486,-0.025550201535225,1.03282868862152,7.66540431976318,11.45143699646,-4.98766660690308,0.501789271831512,0.518718302249908,0.088635660707951,0.738821446895599,-0.391054779291153,4.65647077560425
64,78738,78737,-0.117923215031624,0.077799499034882,1.02516305446625,14.0758590698242,15.8949909210205,-3.12624144554138,0.501793324947357,0.519040524959564,0.090225122869015,0.509815633296967,-0.326171100139618,4.62897300720215
65,78748,78747,0.000590764102526,-0.054062027484179,0.857289731502533,12.5216808319092,6.13191509246826,-3.64257764816284,0.499395698308945,0.519972383975983,0.093834556639195,0.835633516311646,-0.390409588813782,4.60579204559326
66,78758,78757,0.017516514286399,0.059448350220919,1.04401409626007,14.4109954833984,8.04408264160156,-2.19961047172546,0.498739570379257,0.519794762134552,0.096279256045818,0.737337350845337,-0.149089440703392,4.54288768768311
67,78768,78767,0.053654488176108,0.034375939518213,0.95319789648056,8.59302997589111,12.0297145843506,-2.75070238113403,0.498186409473419,0.519280076026917,0.098532684147358,0.608241498470306,0.149740517139435,4.48058843612671
68,78778,78777,0.092883139848709,0.025904759764671,0.994541943073273,13.2830467224121,9.89839935302734,-3.33682608604431,0.497766226530075,0.519553422927856,0.099397242069244,0.427629917860031,0.198919489979744,4.46106863021851
69,78788,78787,0.175171807408333,-0.11036129295826,0.875028789043427,12.4112949371338,9.74749279022217,-4.91645765304565,0.49834617972374,0.521050751209259,0.101985119283199,-0.023544678464532,0.028653969988227,4.49694061279297
70,78798,78797,0.059753861278296,-0.258818984031677,1.00994455814362,4.00684547424316,6.83945417404175,-6.2007908821106,0.502141654491425,0.519082367420197,0.103139288723469,-1.03722500801086,0.694552779197693,4.42157459259033
71,78808,78807,0.059416461735964,-0.063560590147972,0.951240599155426,1.42286574840546,7.55507230758667,-4.81876802444458,0.502327919006348,0.51905220746994,0.105012722313404,-1.05255842208862,0.686179041862488,4.36736679077148
72,78818,78817,0.028762912377715,-0.25293841958046,1.04099452495575,-5.2587776184082,-2.02873229980469,-5.4928126335144,0.50299859046936,0.513793528079987,0.103087820112705,-1.03696119785309,1.78422152996063,4.31976699829102
73,78828,78827,0.139566853642464,0.05462059378624,0.997898519039154,-6.8815803527832,-1.19715225696564,-5.35873889923096,0.502286672592163,0.514173209667206,0.112899444997311,-0.848265767097473,1.35967338085175,4.25986051559448
74,78838,78837,-0.133694961667061,-0.233704462647438,0.838258326053619,-16.1747093200684,-17.0269927978516,-4.59105968475342,0.502448618412018,0.514117419719696,0.116787873208523,-0.769031047821045,1.05607199668884,4.19736337661743
75,78848,78847,-0.161382183432579,-0.330865383148193,1.14091956615448,-22.3619995117187,-28.0791893005371,-2.59963226318359,0.502220988273621,0.514369964599609,0.117622599005699,-0.456696510314941,0.642003238201141,4.15077781677246
76,78858,78857,0.17114944756031,0.06882693618536,0.948765933513641,-20.8222312927246,-27.6718978881836,-3.87782502174377,0.501337766647339,0.515357553958893,0.11983734369278,0.018310515210033,0.066455438733101,4.11113548278809
77,78868,78867,-0.030721884220839,-0.198269531130791,0.849192142486572,-24.255802154541,-33.2597312927246,-4.7421932220459,0.501430630683899,0.516685545444489,0.120771810412407,0.255157858133316,-0.470017790794373,4.04434776306152
78,78878,78877,-0.05688126757741,-0.050073716789484,1.10574281215668,-17.0225982666016,-27.4755458831787,-4.59955978393555,0.50042062997818,0.517359137535095,0.121372148394585,0.73236072063446,-0.811285197734833,4.00737142562866
79,78888,78887,-0.206227377057075,0.078756913542748,0.871780753135681,-1.64486742019653,-8.1395263671875,-3.53760862350464,0.499395817518234,0.514794886112213,0.125717535614967,1.1069667339325,-0.417711943387985,3.97125196456909
80,78898,78897,-0.352943807840347,-0.474522113800049,0.574062705039978,9.32491874694824,0.500283360481262,-1.80637919902802,0.50062507390976,0.517994344234467,0.130439147353172,0.797287821769714,-1.04722261428833,3.96608924865723
81,78908,78907,-0.423991560935974,-0.325709789991379,1.03421914577484,8.17118835449219,-0.316832602024078,-1.48632633686066,0.501962542533875,0.518492937088013,0.129736751317978,0.520372152328491,-0.938414454460144,3.96177792549133
82,78918,78917,-0.031013872474432,-0.084930777549744,1.42730915546417,15.868727684021,15.6961889266968,-2.39146184921265,0.503061294555664,0.518191874027252,0.131702527403831,0.281672090291977,-0.659000158309937,3.94777750968933
83,78928,78927,0.227450236678123,-0.215770274400711,0.762559652328491,29.6657295227051,27.6484375,-0.939402520656586,0.503577947616577,0.518694221973419,0.133615031838417,0.050194155424833,-0.443255603313446,3.92777609825134
84,78938,78937,-0.103297740221024,-0.192480117082596,0.551380932331085,29.5479850769043,20.2921733856201,-2.55661082267761,0.502830386161804,0.519045233726501,0.136058121919632,0.01486052479595,-0.149186074733734,3.88607954978943
85,78948,78947,-0.263888508081436,-0.163308307528496,1.06101989746094,19.9298782348633,10.1218671798706,-4.31297969818115,0.503329932689667,0.51999819278717,0.136177614331245,-0.214403614401817,0.022590545937419,3.86830139160156
86,78958,78957,-0.015874089673162,0.215135470032692,1.23607957363129,19.4904823303223,12.1605796813965,-2.55922746658325,0.503365397453308,0.520627498626709,0.135906100273132,-0.323881059885025,0.093101993203163,3.83771562576294
87,78968,78967,-0.029467167332769,0.262110531330109,0.950421750545502,14.1068840026855,-2.44065093994141,-2.66182947158813,0.503420770168304,0.521055459976196,0.137446984648705,-0.348357766866684,0.304534375667572,3.80844974517822
88,78978,78977,0.025067387148738,-0.091894902288914,0.803070545196533,10.5935459136963,-9.27533149719238,-2.42009735107422,0.502969622612,0.521369099617004,0.139798194169998,-0.149512812495232,0.46841424703598,3.77262616157532
89,78988,78987,-0.099835678935051,-0.187930971384048,1.12042617797852,3.77822113037109,-17.8164825439453,-1.1858891248703,0.503491103649139,0.52190500497818,0.141243487596512,-0.103762492537498,0.525420367717743,3.75639843940735
90,78998,78997,0.188293948769569,0.105414628982544,0.980864107608795,-1.74756872653961,-17.0243148803711,-1.98212683200836,0.503199756145477,0.522873878479004,0.142587721347809,0.178796112537384,0.422409117221832,3.73273324966431
91,79008,79007,-0.082381173968315,-0.002162461401895,0.913596093654633,-3.38784241676331,-20.2960681915283,-2.0750105381012,0.502950191497803,0.523344218730927,0.145005837082863,0.439121812582016,0.408402383327484,3.70851969718933
92,79018,79017,-0.410387992858887,-0.268950641155243,1.03755378723145,-2.97819995880127,-16.9514617919922,-1.32844185829163,0.502557635307312,0.523736357688904,0.146479681134224,0.720443665981293,0.416347205638886,3.68344902992249
93,79028,79027,-0.207864835858345,0.034670878201723,1.07349383831024,0.388643771409988,-8.957200050354,-2.90251588821411,0.502968370914459,0.524176061153412,0.148251235485077,0.764467537403107,0.425424963235855,3.65464329719543
94,79038,79037,-0.155437380075455,-0.025956477969885,0.807659327983856,4.06845617294312,-0.743313431739807,-2.9302613735199,0.503081917762756,0.524725735187531,0.149903684854507,0.777570784091949,0.453199028968811,3.63000154495239
95,79048,79047,0.066665850579739,-0.464020162820816,0.974501490592956,9.20495986938477,7.23553800582886,-1.37526333332062,0.503409445285797,0.524962782859802,0.15277436375618,0.680552244186401,0.582991480827332,3.59852170944214
96,79058,79057,0.182269483804703,-0.090466871857643,0.847386181354523,8.39392948150635,10.8914527893066,-3.47297811508179,0.503314733505249,0.525337696075439,0.154271751642227,0.606944620609283,0.701084434986115,3.57910490036011
97,79068,79067,-0.103932410478592,0.253395527601242,1.12169110774994,6.27545881271362,12.8351078033447,-4.19146871566772,0.503583788871765,0.525560855865479,0.155676066875458,0.449217259883881,0.811481952667236,3.53667593002319
98,79078,79077,-0.136146306991577,0.42429330945015,0.919878184795379,11.0265741348267,16.0053310394287,-2.02408528327942,0.503941297531128,0.527647316455841,0.156080588698387,0.226670488715172,0.542245626449585,3.53695607185364
99,79088,79087,0.151833772659302,0.087940789759159,0.593182384967804,10.4560022354126,10.8647480010986,-2.59233713150024,0.504613697528839,0.527297616004944,0.157751575112343,-0.018400153145194,0.860580861568451,3.49626541137695
100,79098,79097,0.031596597284079,-0.20785753428936,0.853183031082153,5.67725229263306,1.18929159641266,-2.68403100967407,0.504671454429626,0.527055382728577,0.15904974937439,-0.055837001651526,1.07557356357574,3.46011972427368
101,79108,79107,0.034884590655565,0.139218717813492,1.01753973960876,4.74372482299805,-5.92275953292847,-2.20264029502869,0.50460809469223,0.527783811092377,0.160406991839409,0.018262630328536,1.03391087055206,3.441565990448
102,79118,79117,0.066064164042473,0.165209263563156,0.748597860336304,3.54371643066406,-9.94409465789795,-2.49950385093689,0.504419803619385,0.528783857822418,0.161337956786156,0.142473235726357,0.952300369739532,3.42753458023071
103,79128,79127,-0.16350345313549,-0.17654187977314,0.862853467464447,-1.07607662677765,-16.0685234069824,-3.38899779319763,0.504016220569611,0.528979063034058,0.162193924188614,0.360126495361328,1.01749932765961,3.40081977844238
104,79138,79137,-0.065542310476303,-0.059689998626709,1.1310920715332,-2.75279498100281,-15.5156917572021,-3.74338006973267,0.503269612789154,0.529387891292572,0.162729606032372,0.664866387844086,0.989680707454681,3.37626385688782
105,79148,79147,0.118198871612549,0.101355731487274,0.852266609668732,0.793003380298615,-6.23083686828613,-1.92140913009644,0.503074645996094,0.530200362205505,0.163171842694283,0.778635263442993,0.90492308139801,3.3496618270874
106,79158,79157,-0.044978119432926,-0.10639763623476,0.620972394943237,-0.392102807760239,-2.67218136787415,-3.36820268630981,0.504470229148865,0.530918955802918,0.164166450500488,0.528434574604034,0.886588931083679,3.2986364364624
107,79168,79167,-0.225008860230446,-0.062048200517893,1.0588002204895,0.058088909834623,2.05058836936951,-3.2968921661377,0.504273414611816,0.530878663063049,0.164654076099396,0.605734348297119,0.975939452648163,3.25887537002563
108,79178,79177,-0.095708213746548,-0.017154067754746,0.990114092826843,-2.3021399974823,6.44125604629517,-3.98047304153442,0.504395484924316,0.530896246433258,0.164864256978035,0.544949889183044,1.0360552072525,3.2189347743988
109,79188,79187,-0.055532172322273,0.202501267194748,0.798694849014282,-0.239567190408707,8.4807071685791,-3.20959711074829,0.503843128681183,0.530957698822022,0.164991825819016,0.57181042432785,1.06112933158875,3.19364643096924
110,79198,79197,0.022629333660007,-0.034722406417132,0.887404382228851,-1.15526461601257,9.76527309417725,-3.11968183517456,0.504208981990814,0.531410872936249,0.165124416351318,0.397893756628036,1.02135050296783,3.15702772140503
111,79208,79207,-0.132701233029366,-0.022378779947758,1.11585938930511,-3.77983617782593,9.70443916320801,-2.99944376945496,0.504046738147736,0.531866371631622,0.164371073246002,0.339477390050888,0.968382894992828,3.13179326057434
112,79218,79217,0.031996734440327,0.308420866727829,0.963622689247131,-5.14750194549561,10.0081205368042,-3.12537169456482,0.504361033439636,0.532140254974365,0.164204627275467,0.193430975079536,0.92593914270401,3.09393262863159
113,79228,79227,-0.015444656834006,0.150286719202995,0.798235177993774,-4.10343265533447,4.61853790283203,-3.25333619117737,0.503973305225372,0.532312273979187,0.164124339818955,0.183624178171158,0.894050359725952,3.07600450515747
114,79238,79237,-0.142313972115517,0.038892667740584,1.06032168865204,-2.39106512069702,0.928477346897125,-3.10844826698303,0.503635883331299,0.532462120056152,0.163307324051857,0.215813666582108,0.868541657924652,3.04656505584717
115,79248,79247,-0.006671013310552,0.015874037519097,0.973577857017517,-3.71310591697693,2.51727700233459,-2.28125762939453,0.503656804561615,0.53344589471817,0.162983402609825,0.179737210273743,0.705166578292847,3.02137470245361
116,79258,79257,-0.048265650868416,-0.058691382408142,0.86857944726944,-2.31563925743103,-1.6079626083374,-2.36660146713257,0.504302203655243,0.533591330051422,0.162726223468781,0.040277231484652,0.723195016384125,2.98757386207581
117,79268,79267,-0.08449898660183,0.180526793003082,1.11552715301514,-2.03818464279175,-0.175568178296089,-2.76199507713318,0.50410258769989,0.534626066684723,0.162296876311302,0.105023823678494,0.57086455821991,2.96697902679443
118,79278,79277,0.046554028987885,0.355189472436905,0.859021961688995,0.785432040691376,-1.17098450660706,-1.9339884519577,0.503801465034485,0.534765303134918,0.161312013864517,0.167669907212257,0.59355354309082,2.94376564025879
119,79288,79287,-0.180540278553963,-0.062958292663097,0.899315595626831,2.59532308578491,-5.02935075759888,-2.43845701217651,0.503799259662628,0.534646809101105,0.160954564809799,0.185363233089447,0.707971751689911,2.92325162887573
120,79298,79297,-0.088455818593502,0.158799976110458,1.17901635169983,4.29728031158447,-0.322257727384567,-1.36927592754364,0.503870844841003,0.534597218036652,0.160427048802376,0.218622103333473,0.78866982460022,2.8965847492218
121,79308,79307,-0.030699368566275,0.03586670011282,0.89522910118103,3.29844617843628,-1.54899215698242,-0.92118376493454,0.503457069396973,0.534298181533814,0.160885766148567,0.28916734457016,0.916610777378082,2.88727283477783
122,79318,79317,-0.116695679724216,-0.112541317939758,1.1200647354126,-0.537702143192291,6.23704671859741,-1.00662219524384,0.502286076545715,0.53480738401413,0.160371512174606,0.485012829303742,0.869618535041809,2.8940155506134
123,79328,79327,-0.038737427443266,-0.054487898945808,1.06457841396332,-0.243333250284195,6.42307949066162,-1.34802091121674,0.502454221248627,0.535262942314148,0.160091802477837,0.345788210630417,0.803753435611725,2.87399983406067
124,79338,79337,0.115166693925858,-0.375063598155975,0.953003287315369,-4.68323659896851,10.30650806427,0.144329413771629,0.50311940908432,0.535231351852417,0.160922706127167,0.100000455975533,0.833014667034149,2.85844922065735
125,79348,79347,0.043550509959459,-0.052351266145706,1.06097495555878,-6.49919986724854,10.139778137207,0.128043740987778,0.502684772014618,0.535374999046326,0.1606854647398,0.060193058103323,0.778331339359283,2.86729288101196
126,79358,79357,-0.106530845165253,0.042859978973866,1.13192629814148,-6.86245012283325,8.10256004333496,-0.455201387405396,0.502669930458069,0.535606861114502,0.160430267453194,-0.058258630335331,0.699645817279816,2.86775732040405
127,79368,79367,0.07481262087822,0.066146329045296,1.17943668365479,-6.38098096847534,9.54540634155273,-0.164029210805893,0.502885818481445,0.535995185375214,0.160228863358498,-0.190940245985985,0.58127748966217,2.86032009124756
128,79378,79377,0.049795556813479,0.115532137453556,0.895786583423615,-4.83642244338989,0.825758457183838,-0.968956470489502,0.503394246101379,0.536307036876678,0.160066932439804,-0.362254709005356,0.496219664812088,2.8513822555542
129,79388,79387,-0.206732019782066,0.061327699571848,1.12033534049988,-5.80530309677124,-5.98718309402466,-1.37635278701782,0.503260910511017,0.536476850509644,0.160156741738319,-0.284060150384903,0.450752377510071,2.83788537979126
130,79398,79397,-0.018954399973154,0.344545751810074,0.967220962047577,-0.381699621677399,-6.40324687957764,-0.289858371019363,0.502242028713226,0.536643981933594,0.160381391644478,-0.026726683601737,0.403967082500458,2.84152412414551
131,79408,79407,-0.156777530908585,-0.188634216785431,0.933918118476868,-0.702820301055908,-14.8451690673828,-0.943681955337524,0.502342581748962,0.536540925502777,0.160367369651794,0.023606525734067,0.465266168117523,2.83568525314331
132,79418,79417,0.059884708374739,0.161676406860352,0.966829419136047,-0.772076070308685,-10.86976146698,-0.226707100868225,0.502390146255493,0.536555826663971,0.160407617688179,0.148287057876587,0.465794742107391,2.829185962677
133,79428,79427,-0.012522936798632,-0.321731865406036,1.04611706733704,-4.27736759185791,-9.8250732421875,0.080851100385189,0.502396643161774,0.536453902721405,0.160387545824051,0.232182309031486,0.48762634396553,2.82763314247131
134,79438,79437,0.001398675260134,-0.036706309765577,1.06388103961945,-5.00026941299439,-7.69494295120239,0.1612498909235,0.501336693763733,0.536185145378113,0.161139622330666,0.506906807422638,0.477111965417862,2.83155274391174
135,79448,79447,0.189359664916992,0.006095924414694,0.951747238636017,-7.23046255111694,-5.37014818191528,-1.24076104164124,0.501980721950531,0.536005437374115,0.161475747823715,0.38181534409523,0.44837686419487,2.82300448417664
136,79458,79457,-0.111983716487885,-0.235243186354637,1.254887342453,-8.09651374816895,0.717992424964905,0.664911031723022,0.502246499061585,0.535197615623474,0.161494344472885,0.345991551876068,0.589224576950073,2.81876993179321
137,79468,79467,0.006603132933378,0.152702882885933,1.03641521930695,-6.80761432647705,1.12719261646271,-0.503895819187164,0.502050995826721,0.535536289215088,0.16125725209713,0.372808247804642,0.40206378698349,2.82026958465576
138,79478,79477,0.011984845623374,0.023918455466628,0.917989432811737,-9.02626609802246,1.9138491153717,-0.155202656984329,0.502197563648224,0.535854041576386,0.161593347787857,0.298662453889847,0.236683711409569,2.82425141334534
139,79488,79487,-0.15701188147068,0.132340297102928,0.986229836940765,-8.44800853729248,4.13209199905396,0.194432705640793,0.502652108669281,0.536280870437622,0.161870688199997,0.170380011200905,0.059105906635523,2.81904244422913
140,79498,79497,-0.238597482442856,0.058430101722479,0.950553834438324,-6.07550716400147,1.65708637237549,-0.926006853580475,0.502938628196716,0.536230623722076,0.162099525332451,0.092850632965565,-0.017158817499876,2.82328343391418
141,79508,79507,-0.139443680644035,0.169248446822166,1.0694237947464,-3.90341877937317,-0.167574375867844,-0.885608553886414,0.502350926399231,0.536372900009155,0.162982672452927,0.185612842440605,-0.123742811381817,2.81378316879272
142,79518,79517,-0.0798230022192,-0.009448569267988,0.8908811211586,-0.52939784526825,-0.75558477640152,0.541253745555878,0.502270102500916,0.536275625228882,0.163224712014198,0.225346311926842,-0.135844022035599,2.80589294433594
143,79528,79527,-0.111187361180782,-0.088801719248295,1.00840711593628,1.34895944595337,-5.01479291915894,-1.01427900791168,0.502646625041962,0.536160051822662,0.163480684161186,0.1623854637146,-0.094230443239212,2.81008672714233
144,79538,79537,-0.159285590052605,-0.01496163289994,1.10207390785217,2.33720374107361,-5.00557279586792,-0.645794272422791,0.502480983734131,0.536069631576538,0.165134057402611,0.267632454633713,-0.063051372766495,2.79913592338562
145,79548,79547,0.095607064664364,0.072740107774735,1.0396603345871,2.16873240470886,-5.46178865432739,-0.524784505367279,0.502316057682037,0.535959839820862,0.165430843830109,0.34478148818016,-0.031225726008415,2.7903528213501
146,79558,79557,0.109239555895329,-0.095372289419174,1.02681744098663,2.94617581367493,-4.05476045608521,-0.090355895459652,0.501704335212708,0.535006761550903,0.165717422962189,0.519540965557098,0.170340552926064,2.77206087112427
147,79568,79567,0.174072474241257,-0.170955389738083,1.08293640613556,1.46010720729828,-0.760596692562103,-0.492030948400497,0.501650512218475,0.534853637218475,0.166101694107056,0.556544721126556,0.199121981859207,2.76954913139343
148,79578,79577,0.115232780575752,0.01089667249471,1.15691041946411,-0.453042328357697,1.50044560432434,-0.435896456241608,0.501608490943909,0.534901678562164,0.166621819138527,0.541439414024353,0.172978326678276,2.76697754859924
149,79588,79587,0.066542863845825,-0.135792389512062,1.01540565490723,-5.9309196472168,2.91599249839783,-2.01977181434631,0.501186430454254,0.534979701042175,0.167197495698929,0.589188277721405,0.107694014906883,2.75826525688171
150,79598,79597,0.161488130688667,0.056830488145352,1.05472874641418,-6.36164808273315,7.62728452682495,-0.903154611587524,0.501758992671967,0.535023272037506,0.168075546622276,0.370938122272491,0.033192221075296,2.75689911842346
151,79608,79607,-0.067173510789871,0.112389922142029,0.938116669654846,-8.30977916717529,6.73752069473267,-2.37436175346375,0.502250492572784,0.535405278205872,0.169908672571182,0.178880140185356,-0.145983189344406,2.75563383102417
152,79618,79617,-0.079816311597824,0.203460454940796,1.00825321674347,-6.31807994842529,7.53405523300171,-2.21194100379944,0.50179648399353,0.536132037639618,0.170705735683441,0.166569486260414,-0.389673233032227,2.7405834197998
153,79628,79627,-0.098779909312725,0.374562680721283,0.929566383361816,-2.41300415992737,7.2002067565918,-0.349407106637955,0.502094745635986,0.536478400230408,0.17141292989254,0.014414309524,-0.511113464832306,2.72197437286377
154,79638,79637,-0.08535573631525,0.030268028378487,0.889282941818237,0.36979815363884,3.4832329750061,-1.47075796127319,0.502401411533356,0.536568641662598,0.172103613615036,-0.126115247607231,-0.539099752902985,2.71543979644775
155,79648,79647,-0.090676166117191,0.127770528197288,0.974857985973358,4.17718267440796,0.417122453451157,-1.10166323184967,0.502410411834717,0.536214768886566,0.172901377081871,-0.161804497241974,-0.434547483921051,2.70265913009644
156,79658,79657,-0.019083295017481,0.107947587966919,0.885560274124146,8.00565147399902,-1.71478271484375,-0.134591743350029,0.50248908996582,0.537222683429718,0.173403710126877,-0.165468603372574,-0.584347128868103,2.68647193908691
157,79668,79667,-0.155295640230179,0.091606087982655,1.0293151140213,11.0691556930542,-5.18537950515747,-0.120655983686447,0.502329766750336,0.538908302783966,0.174616783857346,-0.133653461933136,-0.791979253292084,2.67914772033691
158,79678,79677,-0.138550147414207,0.068228110671043,1.10420572757721,12.1418933868408,-4.71439599990845,0.535029888153076,0.50256222486496,0.538615167140961,0.175492107868195,-0.116243474185467,-0.532956779003143,2.68157863616943
159,79688,79687,-0.083691336214542,-0.028596388176084,0.97177666425705,13.9648103713989,-5.11100101470947,0.422230929136276,0.502096056938171,0.538556277751923,0.176208913326263,0.041388250887394,-0.330437749624252,2.67048931121826
160,79698,79697,-0.081036977469921,0.038827989250422,1.00986015796661,14.5183610916138,-5.08823108673096,0.059952814131975,0.505213677883148,0.539806246757507,0.176931411027908,-0.510535776615143,-0.328579485416412,2.75394153594971
161,79708,79707,0.028763571754098,0.045817706733942,0.831941962242126,14.5931367874146,-2.90384149551392,0.402418166399002,0.503226101398468,0.538436949253082,0.180074408650398,0.054957319051027,0.152251109480858,2.70498585700989
162,79718,79717,-0.193048134446144,-0.003253171686083,1.04756498336792,11.0020999908447,-7.45783138275147,0.013071170076728,0.502947747707367,0.539088606834412,0.180841773748398,0.16240282356739,0.219046398997307,2.6997983455658
163,79728,79727,-0.022312201559544,0.212362244725227,0.927713572978973,6.23198127746582,-5.0356969833374,1.07062089443207,0.503341376781464,0.540778636932373,0.18160492181778,0.171287566423416,0.096592396497727,2.70199656486511
164,79738,79737,-0.050589341670275,-0.105261169373989,0.894344687461853,4.14528846740723,-3.13098216056824,1.15396320819855,0.503502488136292,0.540921747684479,0.184200063347817,0.235762640833855,0.250943869352341,2.70728802680969
165,79748,79747,0.047666661441326,0.030551966279745,1.05290830135345,1.34172523021698,-0.288794606924057,-0.219120681285858,0.50271087884903,0.541593432426453,0.184800684452057,0.452270597219467,0.271122276782989,2.71134686470032
166,79758,79757,0.113466843962669,0.004632660187781,0.812321543693543,2.52939581871033,4.05513048171997,1.07987558841705,0.502726197242737,0.541472136974335,0.185505405068398,0.493520140647888,0.408117204904556,2.71049380302429
167,79768,79767,-0.093794271349907,-0.264468461275101,1.05788373947144,1.90541636943817,5.69406938552856,-0.412928402423859,0.503119945526123,0.541296243667603,0.187075152993202,0.399281233549118,0.551544964313507,2.7171938419342
168,79778,79777,0.067058280110359,0.161803767085075,1.04469394683838,3.13659167289734,9.36459541320801,-0.224551424384117,0.50312215089798,0.541209757328033,0.187609910964966,0.335067629814148,0.680598616600037,2.70791029930115
169,79788,79787,-0.06738205999136,0.037982232868672,0.980715155601501,1.11284923553467,9.84088134765625,0.264594227075577,0.501843154430389,0.541089713573456,0.188127189874649,0.559480547904968,0.723691165447235,2.70264315605164
170,79798,79797,0.018268264830113,-0.068978890776634,1.25532901287079,0.647269427776337,9.34772300720215,0.487879067659378,0.501014769077301,0.540902733802795,0.188534691929817,0.566808938980103,0.792281210422516,2.70571160316467
171,79808,79807,0.092943288385868,-0.005488537251949,0.919893264770508,0.345787465572357,12.3103685379028,-0.173598974943161,0.500835537910461,0.540814399719238,0.190075263381004,0.493219673633575,0.84210479259491,2.70646548271179
172,79818,79817,0.013995416462422,-0.265901952981949,0.799126505851746,-1.78505086898804,11.5570058822632,0.330151617527008,0.501314282417297,0.540995001792908,0.19109633564949,0.252175599336624,0.84080296754837,2.7020320892334
173,79828,79827,-0.039858106523752,-0.068584978580475,1.21358323097229,-3.35970497131348,11.745774269104,0.606828272342682,0.501764714717865,0.541097462177277,0.19186344742775,0.027823222801089,0.857353150844574,2.70351481437683
174,79838,79837,0.217415273189545,0.031205838546157,0.937955856323242,-4.77124071121216,11.9744653701782,0.834517896175385,0.501386761665344,0.54117351770401,0.193076372146606,0.007446123287082,0.816497027873993,2.71064186096191
175,79848,79847,-0.24549999833107,-0.539733409881592,0.823375344276428,-5.71264219284058,9.24940967559814,2.50916290283203,0.497878670692444,0.540465235710144,0.193951353430748,0.434109032154083,0.879698991775513,2.7496919631958
176,79858,79857,-0.127373233437538,-0.068608552217484,1.22972321510315,-7.92657232284546,0.911881983280182,0.544248580932617,0.497793674468994,0.540758967399597,0.195011913776398,0.243218168616295,0.797418057918549,2.76031136512756
177,79868,79867,0.058082811534405,0.069470301270485,0.850704491138458,-8.27074146270752,1.33084094524384,1.26002180576324,0.49774432182312,0.540969133377075,0.194280579686165,0.15866993367672,0.678739368915558,2.76921606063843
178,79878,79877,-0.343007922172546,-0.297586053609848,0.94426167011261,-8.95518684387207,-2.60110402107239,0.697742938995361,0.49769389629364,0.54069983959198,0.195036694407463,0.084272876381874,0.659205317497253,2.77537226676941
179,79888,79887,-0.062587022781372,0.055574897676706,1.00386369228363,-8.85194683074951,-2.58367323875427,0.124615408480167,0.497297435998917,0.540097177028656,0.195645853877068,0.110072314739227,0.673824727535248,2.77983331680298
180,79898,79897,0.024052027612925,0.004646142944694,1.00484442710876,-6.55229806900024,0.920678615570068,0.656404972076416,0.496327042579651,0.539954900741577,0.195770904421806,0.266484767198563,0.591530323028564,2.78647422790527
181,79908,79907,-0.097201690077782,-0.140278115868568,1.06397998332977,-5.17406034469605,4.06209230422974,-0.397117912769318,0.495769947767258,0.539597511291504,0.196288719773293,0.282896190881729,0.547969818115234,2.79228949546814
182,79918,79917,-0.219892352819443,0.11968145519495,0.949787735939026,-5.52151155471802,8.89807033538818,-0.538185596466064,0.495730519294739,0.539857149124146,0.197011277079582,0.205242991447449,0.439883857965469,2.78803300857544
183,79928,79927,-0.231785014271736,-0.089060999453068,0.836883902549744,-3.20881199836731,13.3371572494507,-0.13198110461235,0.495758652687073,0.539990425109863,0.19767864048481,0.087879598140717,0.350480586290359,2.77869868278503
184,79938,79937,-0.087965682148933,-0.064122684299946,0.984362304210663,-2.78867769241333,14.9975519180298,0.016842463985086,0.496212422847748,0.54007887840271,0.199181616306305,-0.165476471185684,0.299847453832626,2.77216982841492
185,79948,79947,-0.117837026715279,-0.035678572952747,0.971069633960724,-4.73427534103394,13.9894180297852,-0.576122581958771,0.496870011091232,0.539296567440033,0.19959132373333,-0.424464464187622,0.39696940779686,2.76895117759705
186,79958,79957,-0.11952605843544,-0.056272402405739,0.876281499862671,-4.57451629638672,10.7723407745361,-0.538382291793823,0.495679825544357,0.539390921592712,0.20034658908844,-0.419592797756195,0.304178565740585,2.77033400535583
187,79968,79967,-0.0249376706779,0.039261810481548,1.00518643856049,-6.94258165359497,3.63782095909119,-1.6701762676239,0.495521754026413,0.539707005023956,0.201851084828377,-0.571196973323822,0.188814654946327,2.76633620262146
188,79978,79977,-0.004642229992896,0.191544950008392,0.905898094177246,-8.94529342651367,0.052226688712835,-0.834108769893646,0.496235430240631,0.540182113647461,0.202165111899376,-0.77663379907608,0.028956199064851,2.74319362640381
189,79988,79987,-0.076213963329792,-0.094653330743313,1.0033848285675,-8.55289363861084,-5.51675128936768,-1.03594279289246,0.49582052230835,0.540081441402435,0.202585130929947,-0.755455493927002,-0.056722171604633,2.73596096038818
190,79998,79997,-0.053157351911068,0.096990875899792,1.07565438747406,-8.30071353912354,-9.74219703674316,-0.711471378803253,0.49461179971695,0.540046751499176,0.203679114580154,-0.55738627910614,-0.154197454452515,2.72831130027771
191,80008,80007,0.092450380325317,0.103892207145691,0.822334289550781,-4.53334999084473,-9.46043109893799,-0.610764145851135,0.493462234735489,0.540298283100128,0.203994691371918,-0.343955487012863,-0.307537347078323,2.71068048477173
192,80018,80017,-0.000201584261958,-0.189653307199478,0.991028070449829,-2.54818439483643,-7.61383676528931,-0.314165472984314,0.493092745542526,0.539509475231171,0.204439148306847,-0.279695153236389,-0.237385138869286,2.71961808204651
193,80028,80027,0.029434008523822,0.057650689035654,1.19661390781403,0.807159960269928,-4.33585453033447,-1.42286145687103,0.493995010852814,0.540191769599915,0.204931184649467,-0.413175642490387,-0.39319184422493,2.71262836456299
194,80038,80037,-0.057918068021536,-0.028499206528068,1.06351137161255,6.20347690582275,2.25013852119446,-1.30635368824005,0.493935585021973,0.540127635002136,0.205659598112106,-0.37791109085083,-0.395186305046082,2.697185754776
195,80048,80047,-0.070439510047436,-0.310929983854294,0.948895335197449,9.12555885314941,5.40543937683106,-2.1321108341217,0.494216650724411,0.539677977561951,0.20619136095047,-0.455587267875671,-0.272339224815369,2.69503474235535
196,80058,80057,-0.206353604793549,-0.162680611014366,0.978390753269196,10.0285339355469,6.98856210708618,-1.12308740615845,0.494044840335846,0.539327263832092,0.206705018877983,-0.505258440971375,-0.13072007894516,2.67904949188232
197,80068,80067,-0.053092122077942,-0.309025883674622,0.955689013004303,9.18130779266357,12.5286722183228,-0.885526418685913,0.494444012641907,0.538950026035309,0.206373661756515,-0.654364585876465,0.017334934324026,2.67774057388306
198,80078,80077,-0.010799514129758,-0.099206924438477,0.972013533115387,4.76615381240845,4.31424283981323,-2.00928568840027,0.494388610124588,0.539584815502167,0.206836178898811,-0.768294155597687,-0.009472280740738,2.65577602386475
199,80088,80087,-0.007383601274341,-0.00070017989492,0.984338104724884,1.34752941131592,-0.435039967298508,-2.01473069190979,0.494097292423248,0.539414882659912,0.207217052578926,-0.784047961235046,0.072548292577267,2.64018082618713
200,80098,80097,0.256741166114807,0.017076911404729,0.814292252063751,-2.21304273605347,-2.92992973327637,-2.03900337219238,0.49402242898941,0.53928416967392,0.207339972257614,-0.793476283550262,0.116529226303101,2.62493205070496
201,80108,80107,0.018332423642278,-0.202451154589653,1.01761090755463,-4.92172861099243,-7.34252786636353,-2.98364472389221,0.494144886732101,0.539287030696869,0.207543686032295,-0.78979766368866,0.111708596348763,2.60484051704407
202,80118,80117,0.109248280525208,0.125017061829567,1.00093615055084,-6.91570281982422,-8.7880277633667,-2.6608247756958,0.493172585964203,0.539493441581726,0.207743778824806,-0.550475120544434,0.04089205339551,2.56425809860229
203,80128,80127,0.032029036432505,0.071813955903053,0.975247144699097,-6.46298217773438,-7.84979724884033,-1.83368062973022,0.49415910243988,0.540772795677185,0.20992323756218,-0.631857633590698,-0.214223206043243,2.51933932304382
204,80138,80137,-0.18746218085289,-0.174972429871559,1.18430316448212,-3.98003387451172,-7.68552494049072,-2.16589951515198,0.494178920984268,0.541020452976227,0.210169702768326,-0.541157364845276,-0.289327323436737,2.50074195861816
205,80148,80147,-0.026268091052771,0.535638928413391,1.08868813514709,-1.48730063438416,-5.11512041091919,-2.52372908592224,0.494249552488327,0.540743172168732,0.21056841313839,-0.42515304684639,-0.254784733057022,2.4920654296875
206,80158,80157,-0.12057014554739,0.224706664681435,0.774598002433777,4.97239065170288,-2.05565047264099,-2.46809554100037,0.495580494403839,0.539796054363251,0.211124524474144,-0.52705854177475,-0.115273259580135,2.494784116745
207,80168,80167,-0.230063408613205,-0.03023324906826,1.0333845615387,5.3552713394165,-2.03837704658508,-2.96128678321838,0.495927661657333,0.540033102035522,0.209619775414467,-0.521963357925415,-0.091978646814823,2.47748589515686
208,80178,80177,-0.090987727046013,0.080454654991627,1.02825176715851,5.0281662940979,-3.17811250686645,-4.10728311538696,0.496239840984345,0.540830612182617,0.209835797548294,-0.486974865198135,-0.148204430937767,2.43478751182556
209,80188,80187,-0.06429123878479,0.185911804437637,0.787188827991486,4.49351167678833,-3.77873563766479,-3.54306721687317,0.496159464120865,0.54062032699585,0.210126355290413,-0.378298878669739,-0.050820525735617,2.39777898788452
210,80198,80197,-0.180222809314728,0.020223945379257,0.98908120393753,3.80330848693848,-6.28836917877197,-4.66750955581665,0.496006399393082,0.540900647640228,0.21186862885952,-0.28411865234375,-0.030447497963905,2.357666015625
211,80208,80207,-0.048732034862042,0.198189452290535,1.04321503639221,4.6207537651062,-7.8058557510376,-5.84725570678711,0.496165603399277,0.541299760341644,0.21197697520256,-0.215918883681297,-0.027551123872399,2.3117458820343
212,80218,80217,-0.06416492164135,0.296394914388657,0.828852355480194,3.97220396995544,-6.52787685394287,-6.05858421325684,0.497436344623566,0.541757524013519,0.212065845727921,-0.303704768419266,-0.040387578308582,2.26036071777344
213,80228,80227,-0.199067175388336,-0.073184356093407,0.8998002409935,5.95735597610474,-4.41279077529907,-6.658447265625,0.496729820966721,0.542045950889587,0.209906280040741,-0.110429875552654,-0.031909272074699,2.19210267066956
214,80238,80237,-0.04972180351615,0.238658547401428,1.08226418495178,5.39827251434326,-1.53015673160553,-5.73777961730957,0.497013509273529,0.541889905929565,0.209727436304092,-0.075430266559124,0.078192912042141,2.13425660133362
215,80248,80247,-0.086349815130234,0.20887790620327,0.771629333496094,5.46718454360962,-2.34956431388855,-6.12846851348877,0.496579200029373,0.542215168476105,0.209518656134605,0.051015384495258,0.083284117281437,2.06448197364807
216,80258,80257,-0.099968731403351,-0.019270839169622,0.911802232265472,5.90806674957275,-0.870505392551422,-6.16734218597412,0.496593952178955,0.542525887489319,0.209237292408943,0.056377664208412,0.10786309838295,2.00568532943726
217,80268,80267,-0.151409760117531,0.176575675606728,1.16923999786377,5.09672737121582,1.6992427110672,-5.3372688293457,0.4975466132164,0.542975008487701,0.21063506603241,-0.067522414028645,0.121931225061417,1.9516122341156
218,80278,80277,0.102256059646606,0.590037763118744,0.524818420410156,0.804005801677704,7.99751663208008,-4.91848659515381,0.499246686697006,0.542944490909576,0.21025139093399,-0.296305358409882,0.188369676470757,1.902996301651
219,80288,80287,-0.270816117525101,0.003334378823638,0.689883351325989,4.29490661621094,0.915671348571777,-4.06371116638184,0.500048518180847,0.54336029291153,0.209726706147194,-0.455816239118576,0.156787946820259,1.85664427280426
220,80298,80297,-0.094201199710369,0.160175040364265,1.28242135047913,6.05612230300903,-2.08785843849182,-2.67948961257935,0.500462472438812,0.543276190757751,0.209651932120323,-0.455995082855225,0.242721483111382,1.81808483600616
221,80308,80307,0.095311656594277,-0.177641451358795,0.971808671951294,4.00441408157349,-4.53561401367188,-1.10660099983215,0.500369310379028,0.543495535850525,0.208913579583168,-0.317228525876999,0.270632207393646,1.78032410144806
222,80318,80317,-0.395420134067535,-0.832967042922974,0.899303019046783,9.2653284072876,-8.01363086700439,0.395035415887833,0.500208079814911,0.543689846992493,0.208266004920006,-0.200505316257477,0.317161560058594,1.76217031478882
223,80328,80327,-0.1062932908535,0.013812181539834,1.21031069755554,-0.318354606628418,-10.9391584396362,-1.43957507610321,0.499591946601868,0.543933272361755,0.208374187350273,0.027461979538202,0.408727705478668,1.76066160202026
224,80338,80337,-0.023456046357751,-0.04720189794898,0.985013782978058,-1.84605205059052,-8.72168636322022,-0.911469519138336,0.502023637294769,0.54403817653656,0.207860693335533,-0.149828776717186,0.439164608716965,1.75362658500671
225,80348,80347,0.063351958990097,-0.241177201271057,0.94995903968811,-2.80717206001282,-10.1493148803711,-0.199631899595261,0.501559317111969,0.544008672237396,0.207493931055069,0.098161660134792,0.471281111240387,1.7424213886261
226,80358,80357,0.148984387516975,-0.134593263268471,1.07781231403351,-4.34289169311523,-10.4623823165894,-0.011187911964953,0.501031875610352,0.544063687324524,0.206971600651741,0.366589933633804,0.477479875087738,1.73664271831512
227,80368,80367,0.154538810253143,-0.259366780519485,1.13203549385071,-4.99154233932495,-9.55953407287598,-0.475509107112884,0.50014078617096,0.544176757335663,0.208735257387161,0.664276599884033,0.446054607629776,1.73832046985626
228,80378,80377,0.085684187710285,-0.010294001549482,1.14435029029846,-5.00235748291016,-7.72158193588257,-1.91115081310272,0.502119243144989,0.544477581977844,0.208827674388885,0.474589586257935,0.386518985033035,1.72643554210663
229,80388,80387,0.035358037799597,-0.039684824645519,1.0750344991684,-2.74942803382874,-2.67323684692383,-0.222201839089394,0.502445161342621,0.544693112373352,0.208684980869293,0.550328254699707,0.309579819440842,1.71108782291412
230,80398,80397,0.102540500462055,0.169212490320206,0.978820383548737,-0.805353164672852,-1.52325093746185,-0.523815929889679,0.502397537231445,0.544907331466675,0.210533365607262,0.619250476360321,0.255785435438156,1.7130092382431
231,80408,80407,-0.118535615503788,0.119113765656948,0.898085832595825,1.79862320423126,0.0474325530231,-0.704709649085999,0.503012955188751,0.545025825500488,0.210685610771179,0.572782576084137,0.221082389354706,1.70376193523407
232,80418,80417,-0.164807349443436,0.162660166621208,1.07012021541595,2.64251637458801,0.459793031215668,-0.505943059921265,0.504976391792297,0.544585585594177,0.210748448967934,0.28896102309227,0.307269781827927,1.69257402420044
233,80428,80427,-0.000160168041475,0.260557919740677,0.945756316184998,2.66424512863159,1.35631537437439,0.367571711540222,0.505119740962982,0.544524133205414,0.211969748139381,0.348609209060669,0.326985359191895,1.68381106853485
234,80438,80437,-0.146326869726181,-0.043540585786104,1.09252285957336,3.42246770858765,-0.194051831960678,-1.30032646656036,0.505186498165131,0.544404625892639,0.212153911590576,0.394394010305405,0.366506904363632,1.68670344352722
235,80448,80447,-0.007835815660656,0.120405942201614,0.890536725521088,1.83278203010559,0.358225822448731,0.052676398307085,0.505182087421417,0.54426121711731,0.212356925010681,0.488807916641235,0.42656198143959,1.67768704891205
236,80458,80457,0.083838976919651,-0.326498687267303,0.880857169628143,-0.032416690140963,0.460474878549576,1.3421528339386,0.505186796188355,0.544534504413605,0.211361885070801,0.550857067108154,0.415351331233978,1.67685484886169
237,80468,80467,-0.035575330257416,-0.120478972792625,1.21414244174957,-1.54180729389191,-1.26155257225037,1.32560396194458,0.504465758800507,0.544501304626465,0.211346879601479,0.727157175540924,0.455448150634766,1.69300127029419
238,80478,80477,0.028075503185392,0.052421946078539,1.14731574058533,-3.60260272026062,-0.212977170944214,0.528757989406586,0.504476547241211,0.545016944408417,0.211358413100243,0.79453843832016,0.377758860588074,1.70840179920197
239,80488,80487,-0.073916643857956,-0.28023898601532,1.18375587463379,-3.57800054550171,0.796498775482178,1.10668432712555,0.506769359111786,0.545112133026123,0.21180135011673,0.44507971405983,0.360277831554413,1.70558428764343
240,80498,80497,0.178625538945198,-0.046661976724863,1.05255615711212,-2.70680475234985,-1.97029972076416,1.24560725688934,0.506734609603882,0.545253098011017,0.213211581110954,0.536490857601166,0.327059060335159,1.71539902687073
241,80508,80507,0.123309828341007,-0.145843163132668,1.09136128425598,-3.00422692298889,-2.8527684211731,1.05964624881744,0.506728768348694,0.545344114303589,0.21376821398735,0.606542646884918,0.29092001914978,1.73192822933197
242,80518,80517,0.033267308026552,-0.022284494712949,1.06588780879974,-3.09539365768433,-6.65302658081055,0.049150850623846,0.507030785083771,0.545491993427277,0.214379623532295,0.617373585700989,0.249162271618843,1.74113214015961
243,80528,80527,0.023353848606348,-0.009049644693732,0.90804535150528,-1.04026675224304,-6.82439708709717,-0.096342548727989,0.507299661636353,0.54468959569931,0.215749442577362,0.682691514492035,0.340336620807648,1.72945976257324
244,80538,80537,0.015191749669612,0.014459785073996,1.11230957508087,-0.565680623054504,-5.4177393913269,0.644831478595733,0.507052302360535,0.544249832630158,0.216466262936592,0.837370872497559,0.385683953762054,1.72394204139709
245,80548,80547,0.138182893395424,0.004208374302834,0.944403767585754,0.874590814113617,-2.13204431533813,0.651050746440887,0.506458103656769,0.544215977191925,0.21717457473278,1.0117974281311,0.348489433526993,1.73169243335724
246,80558,80557,0.000820304907393,-0.003476574085653,0.949567377567291,0.299308449029922,0.139310941100121,0.583815336227417,0.506826102733612,0.544163048267365,0.217645719647408,0.970103800296783,0.344086915254593,1.74063420295715
247,80568,80567,-0.033559091389179,-0.02043017372489,1.01582610607147,-0.80940443277359,4.86935329437256,0.309642374515533,0.50688499212265,0.544167995452881,0.218349561095238,0.97287917137146,0.330360114574432,1.74623930454254
248,80578,80577,0.017915843054652,0.081397093832493,1.00296115875244,-0.524004518985748,9.58504962921143,0.152700439095497,0.507680237293243,0.544191062450409,0.219081878662109,0.817795693874359,0.309528708457947,1.75049984455109
249,80588,80587,-0.172902628779411,-0.202373206615448,1.32798314094543,-1.40826213359833,9.37118339538574,0.874858140945435,0.507145941257477,0.544191360473633,0.219770058989525,0.828266620635986,0.287601321935654,1.75958859920502
250,80598,80597,0.107940375804901,-0.111921422183514,1.21025085449219,0.790155589580536,12.4634656906128,0.892749547958374,0.507155954837799,0.544248342514038,0.221766382455826,0.725862801074982,0.255184561014175,1.7741562128067
251,80608,80607,0.108723938465118,0.064823843538761,0.823420524597168,-0.413896679878235,12.550329208374,0.304700881242752,0.50682783126831,0.544166147708893,0.222860023379326,0.645411670207977,0.261946707963943,1.7858099937439
252,80618,80617,-0.389868468046188,-0.531031548976898,0.861204206943512,-1.39784336090088,11.8811159133911,1.50524008274078,0.507319509983063,0.54419070482254,0.224025055766106,0.435545176267624,0.250899612903595,1.79109048843384
253,80628,80627,-0.249420985579491,-0.177242994308472,1.01900660991669,-3.19931173324585,4.29729700088501,1.32279706001282,0.508751332759857,0.544339239597321,0.223956018686295,0.123121373355389,0.210070416331291,1.80161082744598
254,80638,80637,-0.087038233876228,-0.078181028366089,0.962062120437622,-4.08956861495972,-0.419684648513794,1.23196518421173,0.508881151676178,0.543474078178406,0.224865645170212,0.102930016815662,0.303310930728912,1.79897630214691
255,80648,80647,0.009538300335407,-0.090025745332241,1.03487968444824,-4.21905136108398,-7.58425521850586,0.11909818649292,0.507628560066223,0.543546855449677,0.225926965475082,0.33106005191803,0.22871370613575,1.81389498710632
256,80658,80657,0.073565654456616,0.079879596829414,0.771306872367859,-3.84887075424194,-9.64715385437012,0.057069707661867,0.507184088230133,0.543709695339203,0.224186703562736,0.487462848424912,0.153455525636673,1.81641149520874
257,80668,80667,-0.176685735583305,-0.14103676378727,0.842893898487091,-2.19268703460693,-3.73513650894165,-0.733429431915283,0.507849156856537,0.543843567371368,0.2248205691576,0.473378568887711,0.098967291414738,1.81887626647949
258,80678,80677,-0.163582280278206,-0.068865768611431,1.15108835697174,1.88487577438355,7.49574565887451,1.32520496845245,0.507678806781769,0.543403565883637,0.225249662995338,0.560772240161896,0.137939661741257,1.81252074241638
259,80688,80687,0.094100207090378,-0.047491505742073,0.928059875965118,2.8541624546051,17.3917961120605,1.47263443470001,0.508697688579559,0.542803585529327,0.225699916481972,0.376578152179718,0.220941364765167,1.81616508960724
