number,timestamp_start,timestamp_end,acc.x,acc.y,acc.z,gyro.x,gyro.y,gyro.z,stateEstimate.x,stateEstimate.y,stateEstimate.z,stabilizer.pitch,stabilizer.roll,stabilizer.yaw
0,33461,33458,0.080595701932907,0.162259459495544,1.0271372795105,-13.3068418502808,-20.412914276123,-0.426047772169113,0.522488176822662,0.499217748641968,0.072387740015984,0.343684613704681,-0.453319787979126,4.12837076187134
1,33471,33468,0.079318396747112,0.040995258837938,0.898353815078735,-21.6683826446533,-25.6774196624756,-2.53233075141907,0.52237468957901,0.499541819095612,0.071191735565662,0.548131883144379,-0.6610968708992,4.11937475204468
2,33481,33478,-0.077979475259781,-0.011525858193636,1.06199419498444,-19.8002109527588,-21.0355052947998,-1.17664790153503,0.52291464805603,0.499994099140167,0.07213731110096,0.947649419307709,-0.613189518451691,4.08466529846191
3,33491,33488,0.074949130415917,0.057772915810347,0.969954669475555,-4.84508323669434,-6.85561847686768,-1.80637228488922,0.522976577281952,0.499537259340286,0.073975577950478,1.16885256767273,-0.834714949131012,4.07343578338623
4,33501,33498,0.0466588139534,-0.200042128562927,0.852165102958679,4.42679834365845,1.24013233184814,-3.43847751617432,0.523191690444946,0.49988067150116,0.074948102235794,1.11906385421753,-0.902751088142395,4.07086324691772
5,33511,33508,-0.119862399995327,-0.357293635606766,1.13018929958344,9.70340919494629,5.86568737030029,-1.50170588493347,0.523803293704987,0.500277876853943,0.076038889586926,1.15694224834442,-0.831187784671783,4.03404760360718
6,33521,33518,-0.196183085441589,0.034258738160133,1.25498521327972,19.0566997528076,21.9909172058105,1.16578590869904,0.523938298225403,0.500561714172363,0.076902195811272,0.97656387090683,-0.510075151920319,4.01172399520874
7,33531,33528,0.09240934997797,0.048775639384985,0.858395874500275,20.7056427001953,26.1241798400879,-1.95973718166351,0.524410665035248,0.50026673078537,0.078397206962109,0.942496180534363,-0.366229891777039,3.9915018081665
8,33541,33538,-0.059819433838129,-0.250510811805725,0.920688807964325,13.4036064147949,20.034215927124,0.000344664003933,0.524070680141449,0.500503361225128,0.079236939549446,0.947461605072022,-0.126535043120384,3.94093656539917
9,33551,33548,0.033133935183287,-0.001028818194754,1.04578149318695,9.07095718383789,15.6158752441406,0.741539657115936,0.523392796516418,0.50042998790741,0.079691223800182,0.640288710594177,-0.059927437454462,3.96628928184509
10,33561,33558,0.039565179497004,-0.061395645141602,1.00455760955811,1.46935510635376,4.57914400100708,-0.408103376626968,0.523648321628571,0.500721871852875,0.081632152199745,-0.085559569299221,-0.201665043830872,4.04900598526001
11,33571,33568,0.060180835425854,0.069535456597805,1.05770897865295,0.26521897315979,7.78635454177856,0.070449858903885,0.525593340396881,0.501701653003693,0.081996873021126,0.00163204560522,-0.287036180496216,4.04709243774414
12,33581,33578,0.031655617058277,0.039718005806208,0.805391669273376,-4.10745859146118,-8.39823913574219,-0.661046504974365,0.525823533535004,0.502459645271301,0.083889856934548,0.245649874210358,-0.210859775543213,4.01817464828491
13,33591,33588,-0.080403544008732,-0.028900472447276,1.01735651493073,-9.53102493286133,-16.0825290679932,1.18468451499939,0.525507926940918,0.502610146999359,0.086996272206307,0.592032968997955,-0.350807011127472,4.00948667526245
14,33601,33598,0.06065047159791,0.135288164019585,1.12490177154541,-1.13461053371429,-11.5419569015503,-0.044304057955742,0.524951219558716,0.503181755542755,0.085935883224011,0.8333780169487,-0.298536598682404,4.00215768814087
15,33611,33608,0.191418722271919,0.071136206388474,0.875968754291534,1.02508437633514,-15.1019382476807,-1.25037968158722,0.52472460269928,0.50325882434845,0.08704873919487,1.04208254814148,-0.200169578194618,3.98526310920715
16,33621,33618,-0.069582939147949,-0.21858873963356,1.15774869918823,0.52571713924408,-10.8235816955566,-1.09094548225403,0.524421572685242,0.503264129161835,0.087849497795105,0.979844391345978,-0.257320612668991,3.98951315879822
17,33631,33628,0.122576326131821,0.054154980927706,1.11790180206299,9.3427095413208,4.9495096206665,-1.92754852771759,0.52477365732193,0.503777503967285,0.090034119784832,0.868282675743103,-0.061064153909683,3.96854758262634
18,33641,33638,0.214604124426842,0.032677080482245,0.839301526546478,11.9737968444824,2.9690248966217,-2.86604881286621,0.525273323059082,0.503630220890045,0.089382909238339,1.05307841300964,0.168816104531288,3.92095685005188
19,33651,33648,-0.043388195335865,-0.230093255639076,1.14886510372162,5.1812596321106,4.4722900390625,-1.67185688018799,0.524737060070038,0.503397464752197,0.090783372521401,1.22621893882751,0.037959139794111,3.91856002807617
20,33661,33658,0.104650877416134,0.039496388286352,1.13620376586914,5.52064752578735,5.81437253952026,-2.85865712165833,0.523914873600006,0.504094064235687,0.092181526124477,0.898997008800507,0.487693786621094,3.84769558906555
21,33671,33668,0.083035387098789,0.069592371582985,0.940352439880371,2.06777167320251,7.7474217414856,-4.16777276992798,0.524453997612,0.503181457519531,0.0931111946702,0.890839219093323,0.379043996334076,3.83931136131287
22,33681,33678,-0.04282233864069,-0.063487365841866,1.08970022201538,-1.90551352500916,5.19865989685059,-4.41749811172485,0.524118185043335,0.503551363945007,0.095246464014053,0.742533385753632,0.311212122440338,3.80322504043579
23,33691,33688,0.072142913937569,0.010329774580896,0.995001673698425,-1.44620788097382,5.53308963775635,-4.34912729263306,0.524156928062439,0.503810465335846,0.097016237676144,0.772294998168945,-0.047916233539581,3.79898142814636
24,33701,33698,0.12059111148119,-0.140186950564384,1.00163114070892,-3.28734016418457,2.78874015808105,-4.91308355331421,0.523748695850372,0.504872262477875,0.097725935280323,0.79391610622406,-0.11062666028738,3.76268362998962
25,33711,33708,-0.044887352734804,-0.002428811043501,1.10296273231506,1.7164021730423,8.76763153076172,-3.28455638885498,0.52330893278122,0.505379438400269,0.098989374935627,0.874625444412231,0.008898915722966,3.706871509552
26,33721,33718,-0.021142302080989,-0.065602287650108,0.983649611473084,5.65987539291382,9.30016803741455,-4.44924449920654,0.52258026599884,0.505373477935791,0.100951045751572,0.752604603767395,0.156479552388191,3.64993667602539
27,33731,33728,0.039904206991196,-0.214746505022049,0.975740313529968,8.64268970489502,8.03382778167725,-3.12448525428772,0.522250115871429,0.505295932292938,0.103084079921246,0.676148533821106,0.048066534101963,3.62871718406677
28,33741,33738,0.03036080673337,-0.148520156741142,1.12826418876648,11.889121055603,8.71863269805908,-3.59407114982605,0.521785855293274,0.505897402763367,0.100738927721977,0.540923655033112,0.234467178583145,3.58785367012024
29,33751,33748,0.308167397975922,-0.131076917052269,0.776989698410034,12.0487098693848,9.9253568649292,-2.4066755771637,0.521454274654388,0.505927741527557,0.102626480162144,0.699844896793366,0.301341712474823,3.56151938438416
30,33761,33758,0.10980112105608,-0.121153369545937,0.852879047393799,12.5962734222412,0.163372799754143,-2.22088551521301,0.520248532295227,0.506325900554657,0.103771783411503,0.81629478931427,0.435549408197403,3.54097723960876
31,33771,33768,-0.019944477826357,-0.393848896026611,1.27656185626984,8.79703044891357,1.8564909696579,-2.26130843162537,0.519019484519959,0.506403386592865,0.101933769881725,0.638946413993835,0.669126749038696,3.50495004653931
32,33781,33778,-0.012744980864227,-0.110433831810951,1.03677046298981,15.1806344985962,16.463550567627,-2.64996075630188,0.518565535545349,0.506231009960175,0.104066878557205,0.595866024494171,0.666452705860138,3.49476957321167
33,33791,33788,-0.163385838270187,-0.467304825782776,0.695140779018402,5.76614665985107,17.8652896881104,-2.64840984344482,0.517603814601898,0.50663685798645,0.105470456182957,0.179504051804543,0.732467770576477,3.45518493652344
34,33801,33798,-0.144363939762115,-0.254900008440018,0.854152023792267,0.41484397649765,19.8849220275879,-3.20114779472351,0.517706751823425,0.50696724653244,0.105436123907566,-0.022241707891226,0.692583024501801,3.43128848075867
35,33811,33808,-0.181264385581017,-0.083877235651016,0.99844354391098,-3.42842888832092,9.19949150085449,-2.22172808647156,0.517116129398346,0.507441639900208,0.106433920562267,-0.039320837706328,0.817246198654175,3.41848659515381
36,33821,33818,-0.037767011672258,0.150161355733871,0.971520483493805,-1.23285412788391,9.78119659423828,-3.54310464859009,0.515925467014313,0.507205128669739,0.107580952346325,-0.152534395456314,0.793319225311279,3.39060807228088
37,33831,33828,0.049698278307915,-0.121305800974369,0.853239059448242,-3.71710300445557,1.78573620319366,-4.46926736831665,0.515148162841797,0.507250308990479,0.108464144170284,-0.218862786889076,0.736932992935181,3.36232733726501
38,33841,33838,0.013316910713911,-0.437911361455917,0.949848592281342,-11.6035137176514,5.40022706985474,-3.35967016220093,0.514401316642761,0.50730162858963,0.106713861227036,-0.414948433637619,0.549488365650177,3.30315947532654
39,33851,33848,0.039946042001248,0.045814473181963,0.825607717037201,-9.82692050933838,1.31054186820984,-3.8422544002533,0.514188826084137,0.50781112909317,0.10783401876688,-0.306324809789658,0.520103216171265,3.27822947502136
40,33861,33858,0.089359700679779,0.059309739619494,0.889431118965149,-3.47571206092834,-3.26511907577515,-3.13742566108704,0.513170123100281,0.507740080356598,0.108438849449158,-0.442492306232452,0.432140171527863,3.23633289337158
41,33871,33868,-0.067415490746498,-0.146141648292542,1.03504359722137,-3.80765795707703,-2.59315633773804,-4.01641607284546,0.513000249862671,0.507836937904358,0.107040926814079,-0.301698237657547,0.469772964715958,3.21443700790405
42,33881,33878,-0.003063457319513,0.117476373910904,1.04195165634155,-0.010227304883301,2.92001962661743,-3.10608196258545,0.511956632137299,0.507634341716766,0.107295379042625,-0.228684782981873,0.46666431427002,3.18495583534241
43,33891,33888,0.07096616178751,0.028506232425571,0.937447845935822,6.25603532791138,4.33107137680054,-1.88072681427002,0.510988235473633,0.507586419582367,0.107370808720589,-0.507495880126953,0.441771954298019,3.14301252365112
44,33901,33898,-0.120921641588211,-0.110244065523148,0.979405343532562,3.26944804191589,5.80851650238037,-3.04125261306763,0.511146783828735,0.507749259471893,0.107120670378208,-0.602373361587524,0.527880668640137,3.12224078178406
45,33911,33908,0.000432297267253,0.005805584602058,1.02219414710999,3.59087252616882,9.03493690490723,-2.77767610549927,0.510763585567474,0.507653653621674,0.107324063777924,-0.634015262126923,0.52276223897934,3.08897018432617
46,33921,33918,0.113753810524941,0.002464757766575,0.857735514640808,2.54124045372009,8.09986114501953,-1.49565625190735,0.510172009468079,0.507800102233887,0.107618950307369,-0.630444586277008,0.579733788967133,3.07699060440063
47,33931,33928,-0.038542810827494,-0.35372132062912,1.04879820346832,0.768267273902893,4.78283357620239,-1.27778613567352,0.509405970573425,0.507705807685852,0.10623387247324,-0.603768765926361,0.608932733535767,3.07425141334534
48,33941,33938,0.110748842358589,0.097105644643307,1.33051478862762,0.854859411716461,7.36048126220703,-1.96799564361572,0.508479475975037,0.507648944854736,0.106101959943771,-0.740298867225647,0.618216633796692,3.04061985015869
49,33951,33948,0.222276136279106,0.022215839475393,0.968263328075409,-1.39423871040344,8.91804504394531,-1.11021101474762,0.508363544940949,0.507618308067322,0.106700129806995,-0.966396391391754,0.603825569152832,3.02361297607422
50,33961,33958,-0.085623919963837,-0.33836767077446,1.25681829452515,-7.39090728759766,11.1149778366089,-1.56598424911499,0.508300840854645,0.507640957832336,0.107030346989632,-1.07170557975769,0.507818877696991,2.99872207641602
51,33971,33968,0.055428918451071,-0.089972905814648,1.05453300476074,-5.50279426574707,9.30447101593018,-1.73814642429352,0.508036375045776,0.507790327072144,0.107291281223297,-0.95950835943222,0.413282454013824,2.98696374893188
52,33981,33978,-0.022907791659236,-0.201116010546684,0.896641969680786,-6.84562921524048,4.9163818359375,-1.66942453384399,0.506944894790649,0.507863163948059,0.108249761164188,-1.07832765579224,0.330885767936707,2.96547913551331
53,33991,33988,-0.015361095778644,0.001806465093978,1.04278111457825,-9.87350749969482,2.59992265701294,-1.22264206409454,0.506521284580231,0.50799423456192,0.108889199793339,-1.23176848888397,0.194306045770645,2.9329354763031
54,34001,33998,-0.04021692276001,0.174482583999634,1.08179295063019,-6.80548334121704,-1.74394500255585,-1.82165861129761,0.506639182567596,0.508233487606049,0.107335239648819,-1.31632590293884,0.095169521868229,2.91440010070801
55,34011,34008,-0.041871301829815,0.151969000697136,0.989459931850433,-4.96729326248169,-8.20410823822022,-1.69415175914764,0.506589651107788,0.508387982845306,0.107747413218021,-1.19050550460815,0.026507714763284,2.89503002166748
56,34021,34018,-0.160295218229294,0.181655824184418,0.940745413303375,-2.89293503761292,-10.2727661132813,-1.44165813922882,0.506103575229645,0.508494198322296,0.108508802950382,-1.09069108963013,0.006181846372783,2.88474249839783
57,34031,34028,-0.1917734593153,0.065342426300049,1.00655472278595,-0.269231528043747,-14.4878301620483,-2.21937608718872,0.505874693393707,0.508558392524719,0.108367875218391,-0.999975800514221,0.023704215884209,2.87168788909912
58,34041,34038,0.04107553139329,-0.007022641599178,1.05222380161285,1.62505078315735,-11.5273666381836,-1.72411549091339,0.505788743495941,0.508565425872803,0.108836859464645,-0.912095010280609,0.051846142858267,2.85705399513245
59,34051,34048,-0.035750839859247,-0.108836829662323,0.96760231256485,2.79969263076782,-9.83817005157471,-1.81811058521271,0.505772352218628,0.50853431224823,0.109301827847958,-0.783668994903564,0.112746395170689,2.84936213493347
60,34061,34058,0.055485654622316,-0.214744001626968,1.04294240474701,2.44681811332703,-6.67653131484985,-3.08891201019287,0.505545914173126,0.508467137813568,0.109806835651398,-0.697920560836792,0.164119139313698,2.82915735244751
61,34071,34068,0.176764234900475,-0.039275795221329,1.01748943328857,3.89824509620667,0.434109181165695,-1.21018755435944,0.505416333675385,0.508415937423706,0.108586147427559,-0.70134574174881,0.222842946648598,2.81250715255737
62,34081,34078,0.062933638691902,-0.209590584039688,1.11805236339569,0.566174745559692,1.59545135498047,-0.974999845027924,0.505419015884399,0.508331596851349,0.10896559804678,-0.799935877323151,0.237752303481102,2.79929280281067
63,34091,34088,-0.002282199915499,-0.287672460079193,1.12234568595886,0.879517793655396,1.71871531009674,-0.73591011762619,0.505713164806366,0.508331835269928,0.109386533498764,-0.820998549461365,0.203410029411316,2.7877631187439
64,34101,34098,-0.002069525420666,-0.0060043935664,1.11897134780884,-2.49717450141907,1.30799043178558,-0.637950420379639,0.505790531635284,0.508562624454498,0.109635628759861,-0.83436930179596,0.043156385421753,2.7539975643158
65,34111,34108,-0.101733177900314,-0.036408171057701,1.05969452857971,-2.06906533241272,-0.834413409233093,-0.817655980587006,0.505818068981171,0.509138405323029,0.110270082950592,-0.747146427631378,-0.026940794661641,2.73509979248047
66,34121,34118,0.004130767658353,0.002253062091768,0.969605267047882,-0.09056743234396,-4.94563484191895,-0.608295261859894,0.505554437637329,0.509450554847717,0.111074037849903,-0.895918548107147,0.081075720489025,2.74870181083679
67,34131,34128,-0.091428019106388,-0.013772928155959,1.02867841720581,1.90794837474823,-8.85502338409424,-0.407534629106522,0.506258964538574,0.509238660335541,0.112772837281227,-0.874370038509369,0.134925708174706,2.75560855865479
68,34141,34138,0.006794662680477,0.247287854552269,1.18406188488007,3.2948215007782,-13.6638288497925,-0.875749945640564,0.506584048271179,0.509214639663696,0.113532543182373,-0.565584897994995,0.122279867529869,2.73803853988647
69,34151,34148,-0.104084946215153,-0.099736168980599,1.01104426383972,6.53939771652222,-16.3394241333008,-0.73965311050415,0.506273984909058,0.50937831401825,0.114842370152473,-0.272362738847733,0.258435279130936,2.73712229728699
70,34161,34158,-0.266512304544449,-0.779686033725739,1.14593744277954,1.86307060718536,-20.7715682983398,0.073884673416615,0.505915760993958,0.509217202663422,0.11592099070549,-0.054872743785381,0.340998828411102,2.72580814361572
71,34171,34168,0.103108003735542,-0.198696479201317,1.12379086017609,-0.052417650818825,-13.303165435791,0.528190672397614,0.505948483943939,0.509174704551697,0.116728566586971,-0.10312857478857,0.335058897733688,2.73051452636719
72,34181,34178,0.025962458923459,-0.17707447707653,1.02496778964996,-4.44977474212647,-13.4814567565918,-0.709619879722595,0.506685078144074,0.509205877780914,0.118227541446686,0.311659961938858,0.277013450860977,2.724773645401
73,34191,34188,-0.112086981534958,-0.130376294255257,1.06164824962616,-6.88799428939819,-8.51426792144775,0.796668171882629,0.505871653556824,0.509266018867493,0.119997277855873,0.539573311805725,0.170130521059036,2.7258517742157
74,34201,34198,-0.206473037600517,0.081807188689709,1.00436067581177,-5.61370325088501,-2.43463063240051,0.560458600521088,0.505332708358765,0.509409427642822,0.118941985070705,0.556873917579651,0.075206205248833,2.73380947113037
75,34211,34208,-0.134749352931976,0.071139633655548,0.930553793907166,-5.1022219657898,-4.02352237701416,-0.161842122673988,0.505245089530945,0.509542644023895,0.120311699807644,0.643588662147522,0.009252121672034,2.73070549964905
76,34221,34218,-0.108408622443676,0.07663257420063,1.10458099842072,-4.13733816146851,1.7425971031189,-0.601659178733826,0.504848480224609,0.509653389453888,0.121420830488205,0.602652013301849,-0.048823028802872,2.72542905807495
77,34231,34228,0.086554490029812,0.272206753492355,0.835013329982758,-0.961550176143646,8.29841804504395,0.43076103925705,0.504841923713684,0.509763956069946,0.121581472456455,-0.416823506355286,-0.059500951319933,2.74740743637085
78,34241,34238,-0.164813980460167,-0.210543259978294,0.907592058181763,-0.737450778484345,7.32689571380615,0.737482905387878,0.508393585681915,0.509964346885681,0.123974151909351,-0.388213217258453,-0.186887755990028,2.75683355331421
79,34251,34248,-0.351134449243546,-0.063923835754395,1.3610155582428,-0.096729636192322,-1.105877161026,-0.133252590894699,0.508629441261292,0.510565638542175,0.126205340027809,-0.231083780527115,-0.153925955295563,2.74828505516052
80,34261,34258,-0.021788874641061,0.051516424864531,1.1616348028183,3.03061294555664,-1.51685607433319,0.275591850280762,0.508624017238617,0.510583400726318,0.12584125995636,-0.1090337485075,-0.082802698016167,2.74604082107544
81,34271,34268,0.042762085795403,-0.22832578420639,0.989188849925995,3.7487940788269,-12.5936031341553,-0.290171802043915,0.508631885051727,0.510516166687012,0.127664402127266,0.131534695625305,0.004750452935696,2.73443031311035
82,34281,34278,-0.004172740969807,-0.11159336566925,1.00480723381042,7.48269939422607,-17.7102108001709,-0.031580768525601,0.508337497711182,0.510410130023956,0.129461839795113,0.167216256260872,-0.010176341980696,2.74234652519226
83,34291,34288,0.045349016785622,-0.115388363599777,0.959002792835236,8.74619102478027,-19.2044906616211,0.361849725246429,0.509048998355866,0.510846853256226,0.131150901317596,0.48845899105072,0.176593214273453,2.73975729942322
84,34301,34298,0.120766252279282,-0.000434592337115,1.04181563854218,9.90909004211426,-23.571928024292,-0.048326198011637,0.508765816688538,0.510583639144897,0.129457399249077,0.801872849464417,0.17043499648571,2.73892045021057
85,34311,34308,0.010595537722111,0.046127282083035,1.08625721931458,12.1285991668701,-18.5886325836182,0.942044973373413,0.508402049541473,0.510908961296082,0.130722552537918,1.09232103824615,0.250311702489853,2.74208641052246
86,34321,34318,0.056508958339691,-0.095731973648071,0.904916286468506,12.0029726028442,-12.5596914291382,1.16032087802887,0.508164465427399,0.511182129383087,0.131940200924873,0.896544218063355,0.474570631980896,2.74771547317505
87,34331,34328,0.041558139026165,-0.28776890039444,0.914463579654694,7.05045652389526,-7.41895723342896,0.585513830184937,0.509685873985291,0.510913729667664,0.132988631725311,0.9552401304245,0.415793806314468,2.77971887588501
88,34341,34338,-0.088955171406269,-0.343023777008057,1.21131718158722,3.46239948272705,-0.889584243297577,0.015168199315667,0.510068595409393,0.511683344841003,0.134367525577545,0.996918141841888,0.527524054050446,2.77267980575562
89,34351,34348,0.123703017830849,-0.261677950620651,0.966481983661652,3.08684158325195,6.86046314239502,0.702311158180237,0.510367512702942,0.511596977710724,0.135720252990723,0.98395186662674,0.669153392314911,2.76174712181091
90,34361,34358,0.131300926208496,-0.238404184579849,0.8278568983078,-2.52068996429443,7.93828582763672,0.262324899435043,0.510552763938904,0.511178970336914,0.135448530316353,0.902474224567413,0.650036334991455,2.76752305030823
91,34371,34368,0.106558904051781,-0.334405392408371,1.07961678504944,-7.41740989685059,6.75856637954712,0.007285170257092,0.510775566101074,0.51125568151474,0.136710181832314,0.839585661888123,0.545003175735474,2.77371859550476
92,34381,34378,0.124395132064819,-0.110858701169491,1.01098525524139,-8.84034252166748,7.44160461425781,-0.028666013851762,0.51095849275589,0.511478543281555,0.137959390878677,0.784924328327179,0.419492125511169,2.77570056915283
93,34391,34388,0.045588925480843,0.054483871906996,0.969799041748047,-6.71236228942871,1.40400850772858,-1.08967900276184,0.511100947856903,0.511742174625397,0.139241933822632,0.80493700504303,0.30966579914093,2.78239703178406
94,34401,34398,-0.02264772169292,-0.297880321741104,1.11589527130127,-7.20562791824341,-0.072296895086765,-1.02699220180511,0.510794103145599,0.511954665184021,0.138376817107201,0.855684995651245,0.272797912359238,2.77179455757141
95,34411,34408,0.000844639784191,-0.150628671050072,1.09220850467682,-1.02519476413727,0.294249206781387,-0.308567732572556,0.510513067245483,0.511831521987915,0.139557540416718,0.864826858043671,0.212920963764191,2.76021218299866
96,34421,34418,0.1434036642313,-0.205466687679291,0.792828977108002,4.40849781036377,0.884151816368103,1.23454630374908,0.510492324829102,0.511933326721191,0.140870332717896,0.832370400428772,0.242714554071426,2.75865507125854
97,34431,34428,-0.094291523098946,-0.435000777244568,0.97204053401947,4.15360498428345,0.932699680328369,1.41926336288452,0.510530591011047,0.511901795864105,0.140014365315437,0.783668994903564,0.25197845697403,2.78446102142334
98,34441,34438,-0.140104621648788,-0.27069890499115,1.11600410938263,2.99808621406555,3.41266059875488,0.003810294903815,0.510652303695679,0.51217919588089,0.141047745943069,0.673772811889648,0.321127980947494,2.78349590301514
99,34451,34448,0.06409414857626,0.049718651920557,0.895490109920502,7.02926588058472,4.10887050628662,0.611093938350678,0.511165857315064,0.512129485607147,0.142129451036453,0.775020480155945,0.407015055418014,2.77805495262146
100,34461,34458,0.070791363716126,-0.216736331582069,0.787201523780823,4.57819175720215,2.06402254104614,1.53305280208588,0.51057368516922,0.51195615530014,0.140802890062332,0.827222347259522,0.509132862091064,2.79329133033752
101,34471,34468,-0.060218252241612,-0.278873473405838,1.11376309394836,0.878284454345703,6.26369619369507,2.2820897102356,0.510006070137024,0.511809885501862,0.141547620296478,0.712001979351044,0.399122565984726,2.8341019153595
102,34481,34478,0.105078607797623,0.10962625592947,0.948955953121185,-2.3037166595459,9.27098083496094,0.962691605091095,0.510243654251099,0.512539744377136,0.142450705170631,0.706910908222199,0.260937422513962,2.85338878631592
103,34491,34488,0.066945843398571,-0.124621130526066,0.720367789268494,-2.22720885276794,8.82789516448975,2.76664161682129,0.510127186775208,0.513346433639526,0.143075257539749,0.546409368515015,0.296635538339615,2.86009216308594
104,34501,34498,0.005492966622114,-0.135614529252052,0.911346435546875,-3.00872611999512,8.77188491821289,2.21632957458496,0.510474383831024,0.513417065143585,0.142640933394432,0.382173538208008,0.314574122428894,2.87619161605835
105,34511,34508,0.053938020020723,0.072579517960548,0.92316210269928,-3.4567403793335,8.81544208526611,1.2099781036377,0.510775864124298,0.513544857501984,0.142965108156204,0.229122042655945,0.517856478691101,2.87548136711121
106,34521,34518,0.068307168781757,-0.117312282323837,0.705919504165649,-2.6406717300415,7.51625108718872,1.98748302459717,0.511123955249786,0.512518465518951,0.143361940979958,0.327996075153351,0.463175386190414,2.8971745967865
107,34531,34528,-0.056376527994871,-0.376875847578049,0.999497532844543,-1.03693521022797,1.33109247684479,1.74008083343506,0.510232627391815,0.51256251335144,0.143161550164223,0.286982268095016,0.379621356725693,2.92270708084106
108,34541,34538,0.042894117534161,0.255386054515839,1.02043521404266,-1.60890245437622,-0.125269085168839,1.04086804389954,0.509882390499115,0.512960195541382,0.143138870596886,0.338611781597137,0.143909528851509,2.95599508285522
109,34551,34548,-0.054771274328232,0.351914346218109,1.16100120544434,-5.70279741287231,-1.55376601219177,1.62344455718994,0.509440004825592,0.51418924331665,0.14303657412529,0.038282632827759,0.201388582587242,2.95546817779541
110,34561,34558,0.054942060261965,0.086006984114647,1.01436340808868,-3.40447211265564,-3.64510345458984,1.32902216911316,0.510988593101501,0.514091789722443,0.143806263804436,0.082082062959671,0.136946976184845,2.97529268264771
111,34571,34568,0.147520318627357,0.14041893184185,0.923855841159821,-2.04015302658081,-4.12795352935791,1.85937547683716,0.510848879814148,0.514184236526489,0.144041135907173,0.21742008626461,0.090827316045761,3.00492763519287
112,34581,34578,-0.067855544388294,-0.041878510266543,1.07042062282562,-3.71526527404785,-5.56367301940918,0.095432922244072,0.510721266269684,0.514276802539825,0.144223406910896,0.292824864387512,0.127540230751038,3.01483130455017
113,34591,34588,0.03214119002223,0.085909523069859,1.02215254306793,-0.365835189819336,-7.98437738418579,-0.149752497673035,0.510604500770569,0.514031291007996,0.142969965934753,0.271419167518616,0.067107260227203,3.0163791179657
114,34601,34598,-0.000433471286669,-0.075492218136788,1.03525602817535,-0.177236691117287,-6.77985000610352,0.211434870958328,0.510690689086914,0.514423072338104,0.143042683601379,0.390019029378891,-0.067005768418312,3.01852107048035
115,34611,34608,0.039448976516724,-0.25032451748848,1.06434202194214,-0.113559015095234,-4.13313293457031,-0.347251683473587,0.510416507720947,0.515166461467743,0.143065497279167,0.490067481994629,0.001287398510613,3.01938772201538
116,34621,34618,-0.340184330940247,-0.181706383824348,1.08589744567871,1.65839982032776,-1.03614056110382,-0.04285316541791,0.510275006294251,0.515141785144806,0.143250167369843,0.559804081916809,0.071526728570461,3.01081275939941
117,34631,34628,-0.091795444488525,0.218263030052185,0.948569178581238,1.47466969490051,1.41436183452606,-0.328067630529404,0.510255694389343,0.515061438083649,0.142376244068146,0.551222324371338,0.124870754778385,3.00943207740784
118,34641,34638,-0.024759251624346,0.042316362261772,1.04560339450836,2.1808774471283,5.89181900024414,-0.003660058602691,0.510305941104889,0.514999628067017,0.142572045326233,0.491668194532394,0.17076487839222,3.00917148590088
119,34651,34648,-0.224640667438507,-0.013043767772615,1.05253410339355,3.22114062309265,6.20904111862183,-0.111090034246445,0.510506868362427,0.514925599098206,0.142762064933777,0.392482280731201,0.221035778522491,3.00983262062073
120,34661,34658,0.028236439451575,0.047757666558027,1.09628462791443,0.34857901930809,4.93590545654297,-0.79237562417984,0.510735929012299,0.514815270900726,0.141585320234299,0.285735547542572,0.158151745796204,3.00662159919739
121,34671,34668,-0.075794883072376,-0.006358976941556,1.12853121757507,1.76786720752716,5.98478603363037,0.31263193488121,0.510877013206482,0.515185177326202,0.141799926757813,0.179689034819603,0.175641566514969,2.99965000152588
122,34681,34678,-0.07559335231781,0.075454086065292,0.926139771938324,-1.75967133045197,3.18492126464844,1.42647218704224,0.511075496673584,0.51512598991394,0.142088323831558,0.048648037016392,0.197671890258789,2.99889588356018
123,34691,34688,-0.103120431303978,0.191849052906036,0.885944247245789,-5.11775398254395,0.693018853664398,0.397046804428101,0.511541247367859,0.515203535556793,0.14290826022625,0.063778229057789,0.117805145680904,3.01048755645752
124,34701,34698,-0.190030410885811,0.038902591913939,1.01165246963501,-3.32294869422913,-1.74138355255127,0.102804899215698,0.51152515411377,0.51574170589447,0.143252953886986,0.07609710842371,-0.061071198433638,3.02433180809021
125,34711,34708,-0.052386518567801,0.115509420633316,0.87893670797348,-1.5666835308075,-2.95361709594727,1.00366902351379,0.51141482591629,0.516584455966949,0.143427297472954,0.132629200816154,-0.191291376948357,3.0245316028595
126,34721,34718,-0.089254431426525,-0.2232236713171,1.03902673721313,0.817048609256744,-2.54174494743347,1.23860776424408,0.511270403862,0.517359614372253,0.143428787589073,-0.086166679859161,-0.401495158672333,3.03795051574707
127,34731,34728,-0.008433594368398,-0.036967419087887,1.03892338275909,4.08186721801758,-1.44479811191559,0.670128405094147,0.512570261955261,0.518882155418396,0.14540983736515,0.03061736188829,-0.314752370119095,3.04844260215759
128,34741,34738,0.123388946056366,-0.109798595309258,1.08390080928803,5.97264719009399,-0.565348565578461,0.26167094707489,0.512495994567871,0.519095540046692,0.146062508225441,0.125974252820015,-0.195551380515099,3.05109643936157
129,34751,34748,-0.077572360634804,-0.136121362447739,1.21680510044098,9.27080535888672,-0.319046437740326,1.02083456516266,0.512457072734833,0.519250750541687,0.146653309464455,0.176824897527695,0.015615363605321,3.05575251579285
130,34761,34758,-0.003143831156194,-0.117742046713829,1.12305903434753,12.1213321685791,-1.24290239810944,0.631164193153381,0.512453734874725,0.518918216228485,0.146951615810394,0.220075666904449,0.082275822758675,3.05603170394897
131,34771,34768,0.030768416821957,-0.034106153994799,1.23824894428253,13.6031379699707,-0.96586662530899,1.31822621822357,0.512384712696075,0.519243538379669,0.147600576281548,0.234845668077469,0.265391886234283,3.06501936912537
132,34781,34778,0.05029871314764,0.11750602722168,1.05824601650238,12.9608631134033,-2.24635910987854,0.056693587452173,0.512348175048828,0.519140720367432,0.148418292403221,0.264463484287262,0.439690947532654,3.07564234733582
133,34791,34788,-0.025675605982542,0.024059500545263,0.982294738292694,11.1345863342285,-1.95829629898071,0.040707010775805,0.51226681470871,0.519079267978668,0.150891989469528,0.131683334708214,0.447317153215408,3.08868145942688
134,34801,34798,-0.007982323877513,-0.321559369564056,1.06626069545746,5.88269996643066,1.3581600189209,1.2588963508606,0.51290762424469,0.519857347011566,0.152149811387062,0.246349304914474,0.590531229972839,3.08779692649841
135,34811,34808,-0.161072880029678,-0.190317943692207,1.18337547779083,-0.615782737731934,-0.290939301252365,-1.08240234851837,0.512556672096252,0.519996821880341,0.153336688876152,0.277243912220001,0.44160658121109,3.09562826156616
136,34821,34818,-0.049173202365637,0.215688824653625,0.847303748130798,-2.14213228225708,3.4633264541626,-0.196901693940163,0.512454450130463,0.521524667739868,0.154439851641655,0.19949896633625,0.457319766283035,3.09204840660095
137,34831,34828,-0.048246208578348,-0.20380873978138,0.832348823547363,-2.92032289505005,3.80151343345642,0.145743191242218,0.512928545475006,0.521986246109009,0.155737981200218,0.045138336718083,0.510750710964203,3.08029937744141
138,34841,34838,-0.02630465477705,-0.089056320488453,1.15437602996826,-2.84538507461548,2.47523617744446,0.315534204244614,0.513830602169037,0.522111296653748,0.156902968883514,0.109786011278629,0.557432770729065,3.08380579948425
139,34851,34848,0.103335984051228,-0.09803119301796,1.01583957672119,-1.7412029504776,2.61823654174805,-0.438425838947296,0.513510763645172,0.522171974182129,0.158207550644875,0.135583832859993,0.438810586929321,3.084139585495
140,34861,34858,0.133559480309486,-0.04804727062583,0.941338300704956,-1.12211668491364,-0.680616140365601,0.000873238488566,0.513554632663727,0.523027956485748,0.160651758313179,0.050928603857756,0.501322209835053,3.08347630500793
141,34871,34868,0.080305688083172,0.105612851679325,1.08558392524719,0.689820349216461,-4.66156625747681,-0.595767736434937,0.513924479484558,0.52306604385376,0.161916345357895,0.102867864072323,0.545358300209045,3.08865833282471
142,34881,34878,0.050274312496185,-0.190254792571068,0.997888207435608,2.15086674690247,-5.32297039031982,0.007153669837862,0.51375150680542,0.523009181022644,0.163213759660721,0.221281036734581,0.613467931747437,3.088618516922
143,34891,34888,-0.38653889298439,-0.28720435500145,1.10634112358093,3.55629467964172,-9.75554656982422,-0.138144180178642,0.513546586036682,0.522872567176819,0.162915736436844,0.271502196788788,0.644611418247223,3.08068919181824
144,34901,34898,-0.096570312976837,-0.158831417560577,1.06321907043457,1.6774640083313,-8.60680389404297,-1.38148128986359,0.513575613498688,0.523130834102631,0.164118692278862,0.387537449598312,0.665251076221466,3.07348418235779
145,34911,34908,0.088427752256394,-0.347782135009766,0.945297837257385,-1.1838937997818,-6.98940706253052,-1.13249897956848,0.513644516468048,0.523481726646423,0.165534257888794,0.428855389356613,0.748942852020264,3.05861163139343
146,34921,34918,0.0242640953511,-0.179637849330902,0.96031790971756,-2.00087904930115,-5.36346435546875,-1.14757084846497,0.514220654964447,0.523531675338745,0.167906329035759,0.373672813177109,0.804417371749878,3.03286790847778
147,34931,34928,0.041509572416544,-0.139311537146568,0.973879992961884,-2.93394446372986,-0.481602966785431,-0.859003365039825,0.515284717082977,0.523628950119019,0.169186726212502,0.528076887130737,0.813876867294312,3.02054071426392
148,34941,34938,0.08251928538084,-0.098329827189446,0.923120975494385,-4.38458395004272,1.30097794532776,-0.970353484153748,0.515231013298035,0.523709535598755,0.170483827590942,0.522861421108246,0.807374179363251,3.01235604286194
149,34951,34948,-0.09985925257206,-0.016374282538891,0.972497880458832,-4.1210732460022,1.14303362369537,-1.71114838123322,0.515685677528381,0.523874402046204,0.17165806889534,0.342657774686813,0.754146099090576,2.98786044120789
150,34961,34958,0.055417649447918,-0.066984117031097,0.889575898647308,-4.57102870941162,3.82330369949341,-1.41914927959442,0.517028510570526,0.524076759815216,0.172818839550018,0.352055847644806,0.650490701198578,2.96903443336487
151,34971,34968,0.112747438251972,-0.264360427856445,0.841485500335693,-4.18028450012207,1.80206346511841,-1.46656346321106,0.517561137676239,0.52470988035202,0.173868134617805,0.414842307567596,0.646564066410065,2.96036434173584
152,34981,34978,-0.117380477488041,0.060749504715204,0.981207430362701,-4.45442771911621,-2.54407238960266,-2.66536855697632,0.517589211463928,0.524854183197022,0.17492102086544,0.503772377967835,0.6311936378479,2.94839382171631
153,34991,34988,0.044609408825636,0.086320519447327,0.74400669336319,-2.43898224830627,0.538644671440125,-1.26383602619171,0.517439067363739,0.525003433227539,0.175571039319038,0.566917300224304,0.605114698410034,2.9317831993103
154,35001,34998,-0.159075289964676,-0.053877931088209,0.95073002576828,-0.610567033290863,0.403708755970001,-1.50553333759308,0.51742434501648,0.525079667568207,0.176345646381378,0.62248682975769,0.625204801559448,2.92303776741028
155,35011,35008,-0.063838928937912,-0.111257299780846,1.00181353092194,-0.099505543708801,1.41235041618347,-1.63111186027527,0.517411112785339,0.525082767009735,0.176986888051033,0.66827380657196,0.649599075317383,2.90709614753723
156,35021,35018,-0.043607000261545,0.126624763011932,0.748050391674042,-0.116092391312122,2.46812796592712,-1.21743714809418,0.517439186573029,0.525069117546082,0.177048251032829,0.677120804786682,0.589322984218597,2.89149785041809
157,35031,35028,-0.243307620286942,0.057777259498835,0.95549201965332,0.131434977054596,1.87393665313721,-2.23283553123474,0.517493665218353,0.525531888008118,0.177506327629089,0.663918077945709,0.616385698318481,2.88129138946533
158,35041,35038,-0.133955895900726,0.274666845798492,1.07838976383209,0.657750844955444,4.56230401992798,-1.94112193584442,0.51755291223526,0.525509476661682,0.177816584706306,0.49245411157608,0.63414865732193,2.85212302207947
159,35051,35048,0.028140081092715,0.327307403087616,0.71396666765213,1.41753911972046,7.36024570465088,-1.09726655483246,0.518683254718781,0.525518536567688,0.178172767162323,0.308300673961639,0.493380606174469,2.82533144950867
160,35061,35058,-0.159716725349426,0.03471489623189,0.888441562652588,1.61028599739075,6.37695074081421,-1.60137212276459,0.519877076148987,0.526457726955414,0.178582653403282,0.238488361239433,0.54022204875946,2.81626772880554
161,35071,35068,-0.086365081369877,0.268819034099579,1.20956885814667,0.271654188632965,3.91947245597839,-0.87288635969162,0.520092248916626,0.526347637176514,0.178697034716606,0.269868969917297,0.568345129489899,2.80766725540161
162,35081,35078,0.12730598449707,0.350412875413895,0.788760840892792,0.628033936023712,1.72958111763001,-0.793907105922699,0.519735038280487,0.526262581348419,0.178948000073433,0.253976941108704,0.487473130226135,2.80254030227661
163,35091,35088,0.156063050031662,0.091824531555176,0.718128502368927,1.29410624504089,-0.210237145423889,-1.11997723579407,0.519730448722839,0.52670419216156,0.180774867534637,0.223847672343254,0.44554603099823,2.80036449432373
164,35101,35098,0.053205881267786,0.240504309535027,1.03636634349823,-3.17072200775146,-5.82894992828369,-1.17973411083221,0.519730865955353,0.527071833610535,0.180778533220291,0.056250866502524,0.47213488817215,2.78603267669678
165,35111,35108,-0.156805545091629,-0.037114921957255,1.08577477931976,-2.69671034812927,-8.85711097717285,-1.55610311031342,0.520940482616425,0.527237117290497,0.180650562047958,0.078744515776634,0.431022584438324,2.77649617195129
166,35121,35118,-0.037770725786686,-0.007259534671903,0.98343825340271,-4.64688014984131,-11.7979831695557,-1.76112627983093,0.521443784236908,0.527349889278412,0.181412681937218,0.299825042486191,0.391558051109314,2.76175856590271
167,35131,35128,-0.005281140562147,0.172858938574791,0.930048823356628,-3.27981495857239,-11.4031410217285,-1.50135672092438,0.520882308483124,0.527490854263306,0.18158395588398,0.501656770706177,0.327158778905869,2.74539875984192
168,35141,35138,-0.028251906856895,0.102004155516624,1.03170466423035,-0.814945995807648,-10.8409376144409,-1.46864974498749,0.520302653312683,0.527605831623077,0.181619063019753,0.457830756902695,0.276474595069885,2.72642397880554
169,35151,35148,-0.068832777440548,0.229517325758934,1.06324195861816,0.786702334880829,-9.11384582519531,-2.50043535232544,0.521301448345184,0.527662932872772,0.183159902691841,0.410056531429291,0.256911367177963,2.70777988433838
170,35161,35158,-0.03860280662775,0.246785461902618,0.94457870721817,2.65591716766357,-5.29559803009033,-2.32776641845703,0.522356152534485,0.527663588523865,0.183314323425293,0.565655887126923,0.252923995256424,2.68469381332397
171,35171,35168,-0.121169596910477,0.164958521723747,0.980252265930176,5.3221230506897,-2.58355927467346,-1.84017860889435,0.522085070610046,0.527520596981049,0.183549806475639,0.560362696647644,0.148619934916496,2.67099857330322
172,35181,35178,-0.176658183336258,0.270634561777115,0.932081282138824,3.19196772575378,-0.227946758270264,-1.90695476531982,0.522399842739105,0.528290629386902,0.183689445257187,0.620035350322723,0.222060590982437,2.64933896064758
173,35191,35188,-0.193405881524086,0.137367382645607,0.958477675914764,3.01801753044128,3.26660561561584,-1.68727779388428,0.522368013858795,0.528122782707214,0.184599086642265,0.548013865947723,0.208226293325424,2.63944506645203
174,35201,35198,-0.160352393984795,0.07247855514288,0.975827932357788,1.85386443138123,2.32878708839416,-2.47632360458374,0.522970259189606,0.528504490852356,0.184681951999664,0.536983847618103,0.269121378660202,2.62356042861938
175,35211,35208,-0.023989429697394,0.04724371060729,0.867873013019562,1.41607213020325,6.36128234863281,-0.30502125620842,0.523046851158142,0.5284064412117,0.184761345386505,0.521759212017059,0.238589942455292,2.59740900993347
176,35221,35218,-0.037403929978609,-0.06463485211134,0.984421670436859,0.121478773653507,4.19100999832153,-0.490423321723938,0.523292005062103,0.52883642911911,0.186927422881126,0.483594864606857,0.296119093894958,2.59385919570923
177,35231,35228,-0.027849415317178,0.021605722606182,0.89286345243454,-3.01441860198975,2.65633583068848,-1.75084674358368,0.523455381393433,0.528821706771851,0.187004402279854,0.480303347110748,0.309763729572296,2.58612513542175
178,35241,35238,-0.045102406293154,-0.17488007247448,1.13257455825806,-3.12183475494385,4.08641290664673,-0.570080757141113,0.523544847965241,0.528947234153748,0.187017843127251,0.462854832410812,0.302084684371948,2.57024502754211
179,35251,35248,-0.050475709140301,-0.053171683102846,1.06650626659393,-2.33731007575989,4.7966685295105,-0.110553324222565,0.523706197738647,0.529074370861053,0.189026907086372,0.456938624382019,0.291357815265656,2.56082201004028
180,35261,35258,0.142060786485672,-0.21848914027214,0.886994004249573,-1.85703134536743,6.62577486038208,-0.630110085010529,0.52389669418335,0.5291748046875,0.189245641231537,0.347930699586868,0.216071337461472,2.55943489074707
181,35271,35268,0.036657501012087,-0.120843470096588,1.00777614116669,-0.685897171497345,3.97832250595093,0.45452207326889,0.524653255939484,0.52978777885437,0.189433634281158,0.156286239624023,0.245618253946304,2.55687546730041
182,35281,35278,0.264790326356888,0.010749395936728,0.860600709915161,-0.382200419902802,1.44578015804291,-0.840249598026276,0.525820374488831,0.529853701591492,0.189497113227844,0.162797331809998,0.25077623128891,2.55572962760925
183,35291,35288,-0.010472946800292,-0.419015020132065,1.19400238990784,0.835204482078552,-1.97017824649811,-0.192257732152939,0.525859117507935,0.529852211475372,0.191910043358803,0.189613282680512,0.211420327425003,2.54919171333313
184,35301,35298,0.151994928717613,-0.033773344010115,1.15771949291229,0.68058454990387,-7.57589960098267,-0.143616691231728,0.525720417499542,0.530303418636322,0.192225366830826,0.299359023571014,0.260587990283966,2.54291439056396
185,35311,35308,0.094368569552898,-0.134283885359764,0.987240493297577,1.65210902690887,-9.60876083374023,-0.198874086141586,0.52535206079483,0.530237078666687,0.192698895931244,0.459239900112152,0.296105414628983,2.54564571380615
186,35321,35318,0.093737110495567,-0.093434602022171,1.13688051700592,-0.318478852510452,-11.9207363128662,-1.1602691411972,0.524903953075409,0.530121445655823,0.195553913712502,0.476907253265381,0.118584297597408,2.54468178749084
187,35331,35328,0.103145837783813,-0.037178926169872,1.03974735736847,0.365175992250442,-12.5838508605957,-2.01556801795959,0.525295555591583,0.531673848628998,0.196262791752815,0.406713545322418,0.014822608791292,2.53901052474976
188,35341,35338,0.013724418357015,-0.068768084049225,1.127894282341,0.013998845592141,-8.7075366973877,-1.12565648555756,0.526702880859375,0.532725930213928,0.196962118148804,0.320510029792786,0.062982179224491,2.52776479721069
189,35351,35348,0.043460734188557,0.188845738768578,1.08496344089508,2.53218746185303,-7.63728904724121,-1.14925742149353,0.52838408946991,0.532812058925629,0.201260104775429,0.521135866641998,0.030064160004258,2.5067138671875
190,35361,35358,0.045296348631382,-0.008338963612914,1.07389438152313,8.03293991088867,-6.42527914047241,-0.62777441740036,0.527980029582977,0.533175528049469,0.202522456645966,0.663329601287842,0.125347658991814,2.49198198318481
191,35371,35368,0.058130640536547,0.006365508306772,1.07065486907959,8.34893798828125,-6.23440456390381,-0.688524425029755,0.527667462825775,0.532769918441772,0.203862175345421,0.696118295192719,0.264244794845581,2.48497319221497
192,35381,35378,-0.013298757374287,0.190423220396042,0.972831070423126,8.82252979278564,-5.23799800872803,-0.790419042110443,0.527883946895599,0.532372832298279,0.205154553055763,0.733479201793671,0.181956753134728,2.48064517974854
193,35391,35388,-0.021773409098387,-0.092812545597553,1.0491760969162,9.15849590301514,-3.80482268333435,-0.693778157234192,0.528082251548767,0.53352952003479,0.208155766129494,0.667833209037781,0.202589765191078,2.48158288002014
194,35401,35398,0.091166131198406,0.010434358380735,1.07415044307709,7.49283075332642,-2.21583867073059,-0.708094120025635,0.52889221906662,0.53417044878006,0.209549158811569,0.665707349777222,0.37877693772316,2.4719181060791
195,35411,35408,-0.001746764173731,0.154579445719719,0.963414192199707,5.19709014892578,-0.143082067370415,-0.393811702728271,0.529300928115845,0.533812165260315,0.211063340306282,0.719550848007202,0.497793138027191,2.45785856246948
196,35421,35418,0.00246260757558,-0.04573880136013,0.910609841346741,2.34959244728088,0.246782898902893,-1.07670795917511,0.529274106025696,0.533539056777954,0.212536841630936,0.731051087379456,0.576016128063202,2.45367908477783
197,35431,35428,-0.071086272597313,0.004144610837102,0.968524098396301,1.09804368019104,1.76334655284882,-0.187258452177048,0.529260754585266,0.533400893211365,0.213951930403709,0.677236258983612,0.624035239219666,2.44074773788452
198,35441,35438,0.031387612223625,0.063256792724133,0.967869222164154,-2.33529376983643,1.75530898571014,-1.954305768013,0.529860734939575,0.533349514007568,0.215290188789368,0.613003313541412,0.629665970802307,2.43818855285645
199,35451,35448,0.044703118503094,-0.02081947401166,0.922126650810242,-3.31022119522095,4.03596639633179,-1.4044234752655,0.530458807945251,0.533466815948486,0.216717720031738,0.751634895801544,0.461992621421814,2.43454456329346
200,35461,35458,0.069472685456276,-0.086262337863445,0.92599606513977,-2.4403064250946,5.0258674621582,-0.338885009288788,0.529464960098267,0.5346759557724,0.21809709072113,0.706352293491364,0.4498031437397,2.41736268997192
201,35471,35468,0.147627279162407,0.069743193686009,1.05318748950958,-0.551937520503998,4.2212085723877,-1.05034184455872,0.529684007167816,0.534783720970154,0.219320982694626,0.739541411399841,0.521049380302429,2.40679478645325
202,35481,35478,0.232143819332123,0.151182100176811,0.786857962608337,0.772129714488983,5.62569952011108,-0.18247826397419,0.529333770275116,0.534210383892059,0.220562309026718,0.725056886672974,0.30079460144043,2.40857291221619
203,35491,35488,0.105765596032143,-0.280686736106873,0.375545889139175,0.829560101032257,6.47761583328247,1.928542137146,0.529521882534027,0.535867810249329,0.220496445894241,0.627345502376556,0.430208623409271,2.39362072944641
204,35501,35498,-0.363260060548782,-0.680549681186676,0.500715672969818,4.04787349700928,6.87293910980225,3.04074692726135,0.529864251613617,0.535242021083832,0.221292048692703,0.484135001897812,0.450654536485672,2.409991979599
205,35511,35508,-0.516001582145691,-0.385865241289139,1.48012137413025,2.76558613777161,3.12936186790466,1.30573225021362,0.530189216136932,0.535607278347015,0.221527189016342,0.406178504228592,0.450319737195969,2.43888401985168
206,35521,35518,-0.267796158790588,0.126088231801987,1.49775648117065,5.19118356704712,1.96440196037292,1.43768453598022,0.530210912227631,0.536187827587128,0.218510508537292,0.406800240278244,0.492261677980423,2.45203042030334
207,35531,35528,-0.085386075079441,0.392796099185944,0.970539808273315,4.87039756774902,0.691422343254089,2.23474264144897,0.530204772949219,0.536036908626556,0.219029232859611,0.435024350881577,0.47620216012001,2.4666702747345
208,35541,35538,0.122964099049568,0.096210762858391,0.557255446910858,4.76312494277954,-1.70054197311401,1.02924644947052,0.53024423122406,0.536281943321228,0.219692870974541,0.45956888794899,0.455357044935226,2.49528956413269
209,35551,35548,0.067693300545216,-0.437156230211258,0.671444356441498,0.831430315971375,-7.15624475479126,-0.994051158428192,0.530124127864838,0.537001013755798,0.219362407922745,0.519605040550232,0.669372618198395,2.50294947624207
210,35561,35558,-0.137466549873352,-0.133292824029922,1.01004922389984,-1.22291171550751,-8.34179878234863,-0.86718612909317,0.529738366603851,0.536244928836823,0.219378858804703,0.63625580072403,0.785498082637787,2.49329686164856
211,35571,35568,-0.110521472990513,0.384420186281204,0.912551879882812,-1.67522573471069,-6.26366329193115,-1.20588374137878,0.529286623001099,0.535688817501068,0.219157695770264,0.742892622947693,0.818862020969391,2.48105835914612
212,35581,35578,0.030352383852005,0.143729403614998,0.716541767120361,-3.23123955726624,-4.23877620697022,-2.31291842460632,0.529094278812408,0.535255670547485,0.218233078718185,0.627815127372742,0.809413552284241,2.46188974380493
213,35591,35588,-0.287756025791168,-0.129433363676071,0.982486665248871,-4.86984348297119,0.658822178840637,-2.41203594207764,0.530247390270233,0.534897327423096,0.217832237482071,0.688634991645813,0.713418006896973,2.45116353034973
214,35601,35598,-0.153612315654755,0.018490020185709,1.20158612728119,-6.73282098770142,4.16620111465454,-2.76663064956665,0.529721915721893,0.53528618812561,0.21725906431675,0.627376079559326,0.651104211807251,2.42100477218628
215,35611,35608,-0.023680591955781,0.214301839470863,1.0094188451767,-5.14559650421143,7.72568988800049,-1.05926597118378,0.530021607875824,0.535183548927307,0.216725915670395,0.514479756355286,0.430673241615295,2.39727020263672
216,35621,35618,0.167853266000748,-0.137587636709213,0.856851637363434,-6.51838254928589,7.77351379394531,-2.25783562660217,0.530526220798492,0.536152958869934,0.21604360640049,0.518073856830597,0.326861262321472,2.39077234268188
217,35631,35628,-0.024776548147202,-0.04297997802496,0.986134231090546,-6.76042604446411,8.76162147521973,-2.12317037582397,0.529757142066956,0.536477386951447,0.215534865856171,0.507076561450958,0.312582641839981,2.37303256988525
218,35641,35638,0.002907656598836,-0.088066510856152,0.963547050952911,-5.40104579925537,6.75210428237915,-2.71472072601318,0.529052257537842,0.536195635795593,0.214976131916046,0.360936641693115,0.369843602180481,2.34578490257263
219,35651,35648,0.056009419262409,-0.142679318785667,0.993570983409882,-3.19994783401489,7.77203035354614,-0.854194402694702,0.529489874839783,0.53527295589447,0.214646235108376,0.234875544905663,0.29768180847168,2.32052707672119
220,35661,35658,0.003507338231429,-0.273132354021072,1.15517902374268,-2.9878134727478,4.14025974273682,-2.27111387252808,0.529870510101318,0.535409390926361,0.214071542024612,0.146379142999649,0.33548504114151,2.30803060531616
221,35671,35668,0.198434412479401,-0.130251556634903,0.971667468547821,-0.67326545715332,4.89059495925903,-1.53650283813477,0.530056178569794,0.534949958324432,0.213556960225105,0.249130889773369,0.305888116359711,2.28617763519287
222,35681,35678,0.087955787777901,-0.35028275847435,1.00284945964813,-1.57818138599396,3.97229623794556,-0.860737562179565,0.52908992767334,0.534891903400421,0.213770180940628,0.109402738511562,0.298434436321259,2.26976895332336
223,35691,35688,0.093338780105114,-0.139333292841911,1.18244659900665,-2.46112871170044,2.13910937309265,-1.9530565738678,0.529800057411194,0.534950017929077,0.213381141424179,0.159741312265396,0.285195797681809,2.25909543037415
224,35701,35698,0.155099347233772,-0.113646902143955,0.940605103969574,-2.69369554519653,3.24703359603882,-1.0541604757309,0.5292809009552,0.535016894340515,0.213071316480637,0.132424980401993,0.329368352890015,2.24081349372864
225,35711,35708,0.061524778604508,-0.004661066923291,0.992674112319946,-2.6947135925293,3.61027860641479,0.469172775745392,0.529486238956451,0.534523248672485,0.212806269526482,0.140960887074471,0.286479502916336,2.22626447677612
226,35721,35718,0.125089049339294,0.115123361349106,1.05930721759796,-1.67325747013092,0.533653736114502,-0.149654358625412,0.529029607772827,0.534666061401367,0.212269708514214,0.322188526391983,0.234187215566635,2.22530341148376
227,35731,35728,0.192518770694733,-0.106615595519543,0.829117119312286,-2.27735328674316,1.24994778633118,-0.253117024898529,0.527316153049469,0.534699499607086,0.211986437439918,0.280442386865616,0.190261095762253,2.2237274646759
228,35741,35738,-0.101510800421238,-0.335705012083054,1.27059412002563,-5.74100112915039,1.1200624704361,0.329182475805283,0.527413725852966,0.53483110666275,0.211754083633423,0.21265771985054,0.140400156378746,2.22024154663086
229,35751,35748,0.044217992573977,-0.02086060680449,1.12525498867035,-4.42664337158203,2.5333948135376,0.139046907424927,0.527551889419556,0.535192966461182,0.206846430897713,0.180562719702721,0.213433682918549,2.22584462165833
230,35761,35758,-0.042666513472796,-0.508813679218292,1.0143711566925,-5.45544481277466,3.17050123214722,-0.003175695892423,0.52775377035141,0.534262776374817,0.206565618515015,0.110191479325295,0.188349708914757,2.2325439453125
231,35771,35768,0.169842913746834,-0.084210567176342,1.11004376411438,-7.69679260253906,4.58337020874023,0.892458975315094,0.527954459190369,0.533993124961853,0.206297650933266,0.093035578727722,0.149379655718803,2.23047423362732
232,35781,35778,-0.066073261201382,0.048894014209509,1.1369377374649,-7.36404514312744,-1.07259678840637,-1.42989242076874,0.527693212032318,0.533871531486511,0.201896712183952,0.129257187247276,0.07305683195591,2.23551058769226
233,35791,35788,-0.008349332027137,-0.086965329945088,1.15056300163269,-8.30787658691406,2.06820559501648,0.255352944135666,0.527072310447693,0.53365957736969,0.201489672064781,0.01814809627831,0.004875655286014,2.22685050964355
234,35801,35798,0.112861953675747,0.088052541017532,1.05349922180176,-7.41194248199463,-0.964577734470367,-0.420586585998535,0.527797698974609,0.533567309379578,0.201317816972733,-0.006023060530424,-0.226979494094849,2.2169349193573
235,35811,35808,0.06200235337019,-0.07266753166914,1.09437239170074,-4.701988697052,-3.71026301383972,-0.548378944396973,0.527737438678741,0.534542083740234,0.200458079576492,0.008141420781612,-0.334587723016739,2.21573400497437
236,35821,35818,0.01057437248528,0.109568022191524,1.13491833209991,-2.834716796875,-4.12021636962891,0.630064845085144,0.527555823326111,0.534772932529449,0.200339376926422,0.042137578129768,-0.324470460414886,2.21318793296814
237,35831,35828,0.015455381944776,0.108360856771469,1.10851180553436,1.36396467685699,-3.36722612380981,-0.457627058029175,0.527379035949707,0.534351110458374,0.200407177209854,0.092001870274544,-0.284111320972443,2.22051358222961
238,35841,35838,0.051813818514347,0.055307742208243,0.93999570608139,4.78584671020508,-4.23687791824341,-1.28299009799957,0.527247905731201,0.533739149570465,0.200573936104774,0.122719332575798,-0.256091415882111,2.22096133232117
239,35851,35848,-0.006290692836046,0.172435015439987,0.9612757563591,4.51199626922607,0.230273932218552,-0.533303081989288,0.527076005935669,0.533522605895996,0.199472323060036,0.142519682645798,-0.196633845567703,2.21412396430969
240,35861,35858,-0.119442984461784,0.147438526153564,0.969455599784851,2.74462389945984,0.081749148666859,-0.616590857505798,0.527105808258057,0.533320605754852,0.199503347277641,0.108908697962761,-0.314583837985992,2.20691823959351
241,35871,35868,-0.147424519062042,0.018053416162729,1.09481358528137,1.96111881732941,1.79385042190552,-0.61634773015976,0.527085065841675,0.534266948699951,0.199549749493599,0.070473037660122,-0.274647384881973,2.20204710960388
242,35881,35878,-0.082966268062592,0.106003284454346,0.931435227394104,-0.356080323457718,1.66831386089325,-1.32924604415894,0.52721095085144,0.534195959568024,0.196254923939705,0.030728869140148,-0.330408006906509,2.19469690322876
243,35891,35888,0.019772974774242,0.01673505268991,0.965607047080994,-0.788867652416229,2.00475215911865,-0.894820690155029,0.527277529239655,0.53474634885788,0.196091264486313,-0.025321586057544,-0.328423917293549,2.18857383728027
244,35901,35898,0.061848372220993,0.076785482466221,0.844882130622864,-0.617004752159119,1.2110743522644,-0.15629106760025,0.52737432718277,0.534780204296112,0.195911079645157,-0.060100145637989,-0.182514250278473,2.18821144104004
245,35911,35908,-0.160261750221252,-0.080222256481648,0.987130463123322,1.14507830142975,0.44262632727623,-0.875233113765717,0.527473390102387,0.533766269683838,0.194828525185585,-0.0827666670084,-0.190638348460197,2.19003415107727
246,35921,35918,-0.087769985198975,0.209704592823982,0.98480761051178,2.67142558097839,0.940169274806976,0.48153567314148,0.527496993541718,0.533719599246979,0.19445513188839,-0.097950555384159,-0.172583162784576,2.1830198764801
247,35931,35928,-0.102178230881691,0.00766869680956,1.04834449291229,3.07579493522644,0.017858209088445,0.200431749224663,0.527544796466827,0.533603847026825,0.194068372249603,0.339268326759338,-0.066323891282082,2.14590668678284
248,35941,35938,-0.06669357419014,-0.054149057716131,1.02929699420929,2.60074996948242,-1.65896713733673,-0.14906145632267,0.524532794952393,0.532828748226166,0.193784058094025,0.428688675165176,-0.034049268811941,2.14134621620178
249,35951,35948,0.052219495177269,-0.11646768450737,1.01355016231537,1.92483615875244,0.759926736354828,1.84652709960938,0.52349317073822,0.532679557800293,0.191980674862862,0.372941851615906,-0.010369317606092,2.14436030387878
250,35961,35958,0.038912478834391,-0.296822011470795,1.13296294212341,-1.44804739952087,5.18849229812622,1.4114648103714,0.523562848567963,0.532608509063721,0.191787868738174,0.284630656242371,0.008679995313287,2.17046880722046
251,35971,35968,0.17876660823822,-0.208648890256882,1.04018890857697,-4.5451865196228,9.9885950088501,0.012879716232419,0.523704707622528,0.532607138156891,0.191643968224525,0.219199329614639,-0.024762779474259,2.18524885177612
252,35981,35978,0.036927219480276,-0.064926519989967,1.03953123092651,-5.96008968353272,12.1994476318359,0.617165744304657,0.523639023303986,0.532733976840973,0.190231293439865,0.230848804116249,-0.104972124099731,2.17900705337524
253,35991,35988,0.107324197888374,0.13525390625,0.95860755443573,-7.51300430297852,14.8435115814209,-0.085906453430653,0.52264267206192,0.532917261123657,0.189914524555206,-0.046655047684908,-0.216285765171051,2.19420886039734
254,36001,35998,0.112381346523762,0.029529729858041,1.08554470539093,-3.432124376297,13.4963998794556,-0.537567257881165,0.523304104804993,0.533283650875092,0.189816221594811,-0.18595777451992,-0.165557458996773,2.19646573066711
255,36011,36008,0.026403581723571,0.183103010058403,1.14100158214569,-0.771885931491852,10.8723211288452,0.714454054832459,0.523027896881104,0.532469868659973,0.188071936368942,-0.306484669446945,-0.235048785805702,2.19198536872864
256,36021,36018,-0.042070966213942,0.168077975511551,1.06857204437256,2.51716732978821,7.57191467285156,0.304288029670715,0.5225830078125,0.532540321350098,0.187895566225052,-0.387185752391815,-0.328617632389069,2.18854856491089
257,36031,36028,-0.130177453160286,0.121050842106342,1.10361862182617,3.92661476135254,2.45377063751221,-0.068240292370319,0.522050559520721,0.532949090003967,0.187799572944641,-0.561058044433594,-0.299037128686905,2.20168900489807
258,36041,36038,-0.048623446375132,0.099425435066223,1.0988746881485,7.41453409194946,0.132804319262505,0.809728503227234,0.522186636924744,0.532860338687897,0.187792211771011,-0.716677904129028,-0.224145799875259,2.21600651741028
259,36051,36048,-0.112053044140339,0.16282707452774,1.17780947685242,7.22114610671997,-2.51568531990051,-0.561791718006134,0.522812008857727,0.532602727413178,0.186508536338806,-0.650579512119293,-0.191661074757576,2.21369194984436
